name,latitude,longitude
Katalymata ton Plakoton,34.58333,32.94583
Vounaro,34.65963,32.95258
Trachoni,34.65756,32.9653400
Agios Nikolaos,35.0890400,33.8896
Akrotiri,34.60088,32.95536
Vrysoules,35.1,33.88333
Zennor,50.19057,-5.56614
Zelah,50.32332,-5.07897
Zeals,51.08558,-2.3123
Zeal Monachorum,50.82117,-3.81898000
Ythsie,57.366670,-2.18332998
Ystradowen,51.4905605,-3.42194
Ystrad Mynach,51.6427606,-3.2362
Ystrad-Meurig,52.28333,-3.91667
Ystradgynlais,51.76667,-3.76666995
Ystrad-ffin,52.1,-3.76666995
Ystradfellte,51.80897,-3.55299000
Ystalyfera,51.76716,-3.78082
Yspytty-Ystwyth,52.33333,-3.86666996
Ysbyty Ifan,53.01667,-3.73333000
Yspytty Cynfyn,52.4,-3.83333
Yoxford,52.2681900,1.50681
Yoxall,52.76659,-1.79067998
Youlgreave,53.17399,-1.69044000
Yorton,52.80921,-2.73854
York,53.95763,-1.08271
Yokefleet,53.70805,-0.75738
Yockleton,52.6854705,-2.88917
Yiewsley,51.5132605,-0.47297
Yetminster,50.8957900,-2.57959
Yetlington,55.3819,-1.96855999
Yerbeston,51.746,-4.80767
Yeovilton,51.00359,-2.64898
Yeovil,50.9415900,-2.63211
Yeoford,50.7760700,-3.7273
Yelverton,52.5666705,1.36667
Yelverton,50.4929,-4.0838199
Yelvertoft,52.37335,-1.12154
Yelling,52.2462,-0.153209999
Yelford,51.73333,-1.48333
Yelden,52.29299,-0.51584
Yedingham,54.2,-0.61666999
Yeaveley,52.96017,-1.72278
Yearby,54.58042,-1.07254
Yealmpton,50.34856,-3.99876995
Yeadon,53.8643704,-1.68743
Yazor,52.11667,-2.86667
Yaxley,52.5176800,-0.258519997
Yaxley,52.3228,1.11065
Yaxham,52.655670,0.96598
Yatton Keynell,51.48612,-2.19337000
Yatton,51.96667,-2.53333
Yatton,51.38839,-2.82353
Yatesbury,51.44195,-1.90795999
Yate,51.54074,-2.41839
Yarrow,55.51667,-3.05
Yarpole,52.2797200,-2.78134
Yarnton,51.80448,-1.31149
Yarmouth,50.7052900,-1.49929
Yarm,54.5036400,-1.35792999
Yarlington,51.0611,-2.49325
Yardley Hastings,52.2055,-0.73488
Yardley,52.466620,-1.81028
Yarcombe,50.86828,-3.07425
Yarburgh,53.41718,0.0295399997
Yapton,50.8209,-0.613
Yanworth,51.82196,-1.89185999
Yalding,51.22387,0.4292
Yafforth,54.3452606,-1.47357
Wyverstone,52.270509999999994,0.99032999
Wyton,53.7824,-0.217130000
Wyton,52.33333,-0.116670000
Wythenshawe,53.3802706,-2.2654
Wythburn,54.5067800,-3.04278
Wytham,51.77567,-1.30905
Wysall,52.840109,-1.10361
Wraysbury,51.45863,-0.5403
Wynnstay,52.966670,-3.03333
Wymondham,52.7597800,-0.74055
Wymondham,52.5701206,1.11622998
Wymington,52.268809999999995,-0.60266000
Wymeswold,52.80536,-1.11287999
Wylye,51.13715,-1.98945998
Wylde Green,52.533330,-1.81667
Wylam,54.97654,-1.82187
Wyke Regis,50.5911200,-2.47327
Wyken,52.41667,-1.46667000
Wykeham,54.23333,-0.51667
Wyke,53.73333,-1.76667
Wye,51.18249,0.93678
Wyddial,51.96452,-0.00368999997
Wycliffe,54.5227800,-1.81824
Wyck Rissington,51.892186,-1.72386
Wych Cross,51.0647,0.0218
Wybunbury,53.045420,-2.45207
Wyberton,52.9516400,-0.04137
Wroxton,52.07282,-1.39709
Wroxham,52.70445,1.40582
Wroxeter,52.670420,-2.64759
Wroxall,52.33791,-1.66898
Wroxall,50.61625,-1.22292
Wroughton,51.52411,-1.79559000
Wrotham,51.30856,0.30899
Wroot,53.52336,-0.92872000
Wrockwardine,52.70449,-2.55678
Writtle,51.72906,0.429380000
Wrington,51.36173,-2.76319000
Wrinehill,53.02072,-2.36943
Wrexham,53.0466400,-2.99132
Wrestlingworth,52.110409999999995,-0.16342
Wressell,53.773730,-0.92474
Wrentham,52.38367,1.66692000
Wrenbury,53.0251,-2.60742000
Wrecclesham,51.19859,-0.81281
Wreay,54.83191,-2.88046
Wrea Green,53.776509999999995,-2.91573
Wray,54.10275,-2.60888
Wraxall,51.44417,-2.73139
Wrawby,53.56672,-0.461939996
Wrangle,53.03935,0.12989
Wrangaton,50.40742,-3.86093
Wramplingham,52.6143704,1.12072000
Wragby,53.283330,-0.3
Wrafton,51.1,-4.15
Wrabness,51.93335,1.16117999
Wouldham,51.34986,0.45816
Wotton Underwood,51.83822,-1.00292999
Wotton-under-Edge,51.63242,-2.34512
Wotton,51.21723,-0.3901
Worton,51.316109999999995,-2.04110998
Wortley,53.48333,-1.53332999
Worting,51.26447,-1.13656
Worth Matravers,50.598,-2.03835
Worthington,52.78034,-1.39767
Worthing,52.73333,0.95
Worthing,50.81795,-0.37538
Worthenbury,53.00915,-2.86587998
Worthen,52.6357704,-2.99514
Wortham,52.35311,1.05769
Worth,51.25633,1.3484
Worth,51.1121200,-0.14686
Worsthorne,53.78759,-2.19105
Worstead,52.7833,1.41293999
Worsley,53.4989995,-2.38079
Worsbrough Bridge,53.5296800,-1.4694
Worsborough,53.5298,-1.47243
Worplesdon,51.27268,-0.61236
Wormshill,51.285386,0.6972
Wormley,51.7324,-0.0242
Wormleighton,52.17893,-1.34514
Wormit,56.42541,-2.97774000
Wormington,52.02636,-1.94122000
Worminghall,51.77043,-1.07365
Wormingford,51.94876,0.80861
Wormegay,52.67815,0.45782
Worlingworth,52.26912,1.25383
Worlington,52.33505,0.48748
Worlingham,52.4505400,1.59456
Worleston,53.10495,-2.51229
Worle,51.36033,-2.9259
Worlaby,53.6113,-0.46685
Worlaby,53.26667,0.0166699997
Worksop,53.301820,-1.12404
Workington,54.6425,-3.54413000
Worfield,52.55806,-2.35765
Wordwell,52.315986,0.68106
Wordsley,52.48121,-2.16503
Worcester Park,51.37992,-0.24445
Worcester,52.18935,-2.22001
Wootton Wawen,52.26812,-1.7806
Wootton Rivers,51.3677,-1.71869
Wootton Glanville,50.86667,-2.45
Wootton Fitzpaine,50.75697,-2.89919
Wootton Bridge,50.72445,-1.23691
Royal Wootton Bassett,51.5419,-1.9045
Wootton,53.63021,-0.353280000
Wootton,53.0,-1.85
Wootton,52.20166,-0.88517000
Wootton,52.09525,-0.53494
Wootton,51.70661,-1.31561
Wootton,51.1738,1.1794
Wootton,50.72847,-1.23536
Wooton Saint Lawrence,51.27413,-1.15144
Woore,52.97701,-2.40235
Wooperton,55.47668,-1.93685
Woonton,52.16667,-2.95
Woolwich,51.491000,0.0648
Woolverton,51.2844400,-2.29778
Woolverstone,51.99984,1.1856
Woolton,53.37401,-2.87
Woolstone,52.03333,-0.71667
Woolstone,51.97043,-2.05955
Woolstone,51.58806,-1.57782998
Woolston,50.89305,-1.37801
Woolsthorpe by Belvoir,52.8969,-0.75676
Woolstaston,52.5808300,-2.81000997
Woolpit,52.2245400,0.88826
Woolley,53.61339,-1.51457
Woolland,50.86189,-2.31808
Woolhope,52.018,-2.56665997
Woolfardisworthy,50.96465,-4.37702
Woolfardisworthy,50.86667,-3.66667
Wooler,55.54755,-2.01186
Woolaston,51.6991,-2.58800997
Woolacombe,51.1729606,-4.20689000
Wool,50.67966,-2.2189
Wookey,51.2097200,-2.69225
Woofferton,52.3126,-2.70515
Wood Walton,52.4122606,-0.215690000
Woodville,52.7691800,-1.53447998
Woodton,52.495480,1.37617000
Woodstock,51.8485,-1.35132
Woodside,57.35,-4.2
Woodside,56.51667,-3.28333000
Woodside,52.5,-2.11667
Woodsford,50.7136400,-2.33747
Woodsetts,53.3480400,-1.17204
Woodseats,53.3340300,-1.48654
Woodrising,52.59072,0.93363
Woodplumpton,53.8073,-2.75915
Wood Norton,52.8166705,0.98332999
Woodnewton,52.536330,-0.472539996
Woodmancote,50.91667,-0.24565
Woodley,53.4333300,-2.1
Woodley,51.45,-0.88333
Woodlesford,53.7561900,-1.45513
Woodleigh,50.3277400,-3.7486
Woodland,54.633309999999994,-1.88922000
Woodland,50.5,-3.7
Woodhurst,52.36667,-0.066670000
Woodhouse Mill,53.36407,-1.33776
Woodhouse,53.35762,-1.37278
Woodhouse,52.73369,-1.20282998
Woodhorn,55.193480,-1.53329
Woodham Mortimer,51.709109999999995,0.6233
Woodham Ferrers,51.6667,0.59798000
Woodham,54.633330,-1.55
Woodhall Spa,53.15215,-0.214530000
Wood Green,51.6,-0.116670000
Woodford Green,51.60938,0.02329
Woodford,53.3333300,-2.16667
Woodford,52.38231,-0.58099
Woodford,51.6,0.0166699997
Woodford,51.11667,-1.83333
Wood Dalling,52.8004205,1.09857
Woodcott,51.29214,-1.37801
Woodcote,52.73333,-2.33333
Woodchurch,53.366670,-3.08333
Woodchurch,51.07605,0.77346
Woodchester,51.72155,-2.23286
Woodburn,54.727080,-5.83746
Woodbridge,52.09332,1.32042000
Woodborough,53.02319,-1.06029
Woodborough,51.33852,-1.83975998
Wooburn,51.57888,-0.693
Wonston,51.1524305,-1.32046
Wonersh,51.19828,-0.54416999
Wonastow,51.7928,-2.76598
Womersley,53.66743,-1.20159
Womenswold,51.20936,1.18703999
Wombwell,53.52189,-1.39697999
Wombridge,52.70071,-2.45919
Wombourn,52.533330,-2.18332998
Wolviston,54.62333,-1.29946
Wolvey,52.4862604,-1.36935
Wolvesnewton,51.69338,-2.79104
Wolverton,52.25828,-1.69859
Wolverton,52.0624604,-0.81658999
Wolverton,51.32375,-1.20867000
Wolverley,52.41667,-2.25
Wolverhampton,52.5854704,-2.12296
Wolston,52.37717,-1.39544
Wolstanton,53.03001,-2.21608
Wolsingham,54.73085,-1.88319000
Wollaston,52.7,-3.0
Wollaston,52.45,-2.16667
Wollaston,52.2579400,-0.67038
Great Wolford,52.00902,-1.63845
Wolfhamcote,52.27819,-1.23021
Wolferton,52.829470,0.46145
Wolfelee,55.366670,-2.65
Wold Newton,54.1428,-0.39993
Wold Newton,53.45,-0.13333
Woldingham,51.2852700,-0.03372
Wokingham,51.4112,-0.83565
Woking,51.31903,-0.55893
Woburn Sands,52.01579,-0.64982
Woburn,51.98865,-0.61903
Wixford,52.1891700,-1.87148
Wix,51.9123,1.14296
Wiveton,52.94345,1.03885
Wivenhoe,51.85553,0.95796
Wivelsfield Green,50.96313,-0.071329999
Wivelsfield,50.96908,-0.09089
Wiveliscombe,51.04139,-3.31278000
Witton le Wear,54.67565,-1.77387
Witton Gilbert,54.8057204,-1.63686
Witton,52.51667,-1.88333
Witton,52.8333300,1.46667000
Wittersham,51.0139400,0.70788999
Wittering,52.606980,-0.440480000
Wittenham,51.63333,-1.21667000
Witney,51.7836,-1.4854
Witnesham,52.10507,1.1855
Witley,51.14993,-0.64768
Withypool,51.1075,-3.64944000
Withyham,51.10118,0.13265
Withycombe,51.16191,-3.40945
Withybrook,52.45292,-1.3611
Withnell,53.69333,-2.55635997
Withleigh,50.90083,-3.54881
Withington,52.716670,-2.6
Withington,52.1,-2.63333
Withington,51.83825,-1.94885998
Withiel,50.453999,-4.82643
Withersfield,52.10735,0.41877
Withernwick,53.8488605,-0.18742
Withernsea,53.73115,0.03195
Witheridge,50.9174306,-3.70350996
Withcote,52.64499,-0.82348999
Withcall,53.33575,-0.075260000
Witham,51.80007,0.64038000
Witchingham,52.73333,1.11667
Witchford,52.3869900,0.206019998
Witchampton,50.858909999999995,-2.017
Witcham,52.39844,0.14935
Wistow,53.8166705,-1.1
Wistow,52.412,-0.121970000
Wiston,55.5666705,-3.63333000
Wiston,51.8258306,-4.87
Wistaston,53.0807800,-2.47741
Wistanstow,52.46468,-2.83764
Wissington,51.96545,0.84654
Wissett,52.3610605,1.47316
Wisley,51.3227,-0.476489997
Wishaw,55.76667,-3.91667
Wishaw,52.54864,-1.74587999
Wisborough Green,51.02308,-0.50603999
Wisbech Saint Mary,52.65218,0.097679999
Wisbech,52.6662206,0.15938
Wirksworth,53.0823206,-1.57391000
Winwick,53.4333300,-2.6
Winwick,52.41302,-0.37774
Wintringham,54.1459,-0.64759
Winton,54.4904800,-2.33115997
Winton,50.73333,-1.86667
Winthorpe,53.1666706,0.33333
Winthorpe,53.1,-0.78333
Winterton,53.65497,-0.59885
Winterton-on-Sea,52.7154706,1.69099000
Winterslow,51.09717,-1.66307
Winteringham,53.68727,-0.59183
Winterbourne Stoke,51.16729,-1.89805999
Winterbourne Monkton,51.4469400,-1.85635998
Winterbourne Gunner,51.11608,-1.74436
Winterbourne Earls,51.10635,-1.75497000
Winterbourne Dauntsey,51.11223,-1.74996
Winterbourne Bassett,51.4727,-1.85194000
Winterbourne,51.4460900,-1.3466
Winterborne Stickland,50.84078,-2.23556
Winterborne Steepleton,50.7,-2.53333
Winterborne Monkton,50.6920400,-2.45322
Winterborne Kingston,50.777886,-2.19762
Winterborne Abbas,50.71667,-2.55
Winston,54.5451900,-1.78854000
Winster,54.3166705,-2.88333
Winster,53.1418,-1.64258
Winson,51.77681,-1.86922
Winslow,51.9428400,-0.88131
Winsham,50.8536400,-2.8892
Winsford,53.19146,-2.52398
Winsford,51.10194,-3.56528000
Winnington,53.26367,-2.53329
Winnersh,51.42747,-0.87993999
Winmarleigh,53.92632,-2.80328
Winlaton,54.9532205,-1.71923
Winksley,54.13666,-1.61764
Winkleigh,50.85581,-3.943
Winkfield,51.44228,-0.69825
Wingrave,51.8649400,-0.74244
Wingham,51.271686,1.21462999
Wingfield,52.3471605,1.27115
Wingfield,51.31345,-2.26038
Wingerworth,53.202,-1.43359
Wingates,55.25,-1.85
Wingate,54.73242,-1.37896
Wing,52.61775,-0.6827
Wing,51.89524,-0.71956000
Winfrith Newburgh,50.6624606,-2.27428
Winforton,52.11724,-3.02602
Winford,51.38333,-2.66111
Winfarthing,52.43056,1.0979
Winestead,53.70202,-0.03268
Windsor,54.5666705,-5.95
Windsor,51.48333,-0.6
Windrush,51.81688,-1.72254000
Windley,53.00388,-1.54548
Windlesham,51.36509,-0.65476
Windermere,54.38086,-2.90709
Winder,54.547970,-3.47314000
Wincobank,53.420609,-1.42111
Winchmore Hill,51.63333,-0.1
Winchfield,51.2859200,-0.91022999
Winchester,51.0651306,-1.3187
Winchelsea,50.92519,0.70736999
Winchcombe,51.95363,-1.96397998
Wincanton,51.05676,-2.40574
Wimborne St Giles,50.9,-1.95
Wimborne Minster,50.78333,-1.98333
Wimblington,52.50925,0.08416
Wimbledon,51.42212,-0.20805
Wimbish,52.00615,0.3206
Wilton,55.4333300,-2.78333
Wilton,54.5666705,-1.1
Wilton,51.91667,-2.6
Wilton,51.07926,-1.8621
Wilton,51.0,-3.1
Wilsthorpe,52.7,-0.36667
Wilsontown,55.7790206,-3.67754
Wilstead,52.08088,-0.448889996
Wilsford,51.3,-1.85
Wilsden,53.8208400,-1.85959
Wilpshire,53.78671,-2.47548
Wilnecote,52.60649,-1.65808
Wilmslow,53.3280300,-2.23148
Wilmington,51.4263200,0.20037
Wilmington,50.81971,0.19252
Wilmcote,52.22081,-1.76528
Willstone,52.55,-2.75
Willoughton,53.427380,-0.60063
Willoughby on the Wolds,52.82199,-1.05502
Willoughby,53.22419,0.19963
Willoughby,52.30087,-1.23785
Williton,51.16236,-3.32208
Willington Quay,54.99255,-1.49489
Willington,54.716670,-1.7
Willington,52.8520300,-1.56332
Willington,52.13409,-0.37235
Willingham,53.35,-0.68333
Willingham,52.3140400,0.05776
Willingdon,50.80008,0.255
Willingale Doe,51.75,0.31667
Wilford,52.92573,-1.16
Willey,52.5833300,-2.48333
Willey,52.45,-1.26667
Willesden Green,51.5471,-0.22899
Willesden,51.53333,-0.23333
Willesborough,51.13865,0.89572999
Willersley,52.11984,-3.00655
Willerby,54.1833300,-0.45
Willerby,53.76099,-0.441860000
Willenhall,52.58514,-2.05934
Willen,52.0641,-0.72312
Willaston,53.2955,-2.99732
Willaston,53.0666705,-2.48333
Willand,50.88333,-3.36666996
Wilden,52.18272,-0.39645
Wilcott,52.76328,-2.92713
Wilcote,51.83705,-1.45947
Wilcot,51.3490900,-1.79575
Wilby,52.470520,0.99172999
Wilby,52.30055,1.28514
Wilby,52.2868,-0.72905
Wilburton,52.35191,0.17673
Wilberfoss,53.94854,-0.88945
Wilbarston,52.48636,-0.8033
Wigtown,54.8678300,-4.44489
Wigton,54.8248205,-3.16114
Wigtoft,52.90818,-0.122909999
Wigston Parva,52.50663,-1.31574
Wigston Magna,52.581280,-1.09248
Wigmore,52.31474,-2.85802000
Wighton,52.92236,0.88354
Wiggonby,54.86733,-3.09802
Wigglesworth,54.009580,-2.29271
Wigginton,54.017170,-1.0831
Wigginton,52.657280,-1.6925
Wigginton,51.99727,-1.435
Wigginton,51.78329,-0.63875
Wiggenhall St Peter,52.6833300,0.36667
Wiggenhall Saint Germans,52.6994605,0.35597
Wigan,53.54296,-2.63706
Wield,51.1448700,-1.09518999
Widworthy,50.78815,-3.11131
Widows Row,54.1948800,-5.88356
Widnes,53.3618,-2.73406
Widmerpool,52.84819,-1.0667
Widford,51.823209,0.05897
Widford,51.7,0.45
Widecombe in the Moor,50.5762,-3.81221
Widdrington,55.25,-1.58333
Widdington,51.96103,0.23749
Wickwar,51.59404,-2.39968
Wick Saint Lawrence,51.38472,-2.91027998
Wickhampton,52.59255,1.57965
Wickham Market,52.15298,1.36299
Wickhambrook,52.17127,0.54846000
Wickham Bishops,51.7783,0.66823
Wickham,51.44342,-1.432
Wickham,50.89924,-1.18815
Wickford,51.61101,0.52331
Wickersley,53.42128,-1.28115
Wickenby,53.32244,-0.36851
Wicken Bonhunt,51.97809,0.18222
Wicken,52.31278,0.29719
Wicken,52.0472604,-0.91311000
Wick,58.43906,-3.09424
Wick,52.10475,-2.05725
Wick,51.45306,-2.42361
Wick,51.4394400,-3.54944
Wick,50.8234,-0.54327
Wychnor,52.74329,-1.73987999
Wichling,51.26667,0.75
Wibtoft,52.4856606,-1.29457998
Wibsey,53.76778,-1.78114000
Whyteleafe,51.30808,-0.08429
Whorlton,54.4166706,-1.25
Whixley,54.014309999999995,-1.32256
Whixall,52.9054,-2.72097
Whitworth,53.656009999999995,-2.1771
Whitwick,52.739970,-1.35536000
Whitwell,53.283330,-1.21667000
Whitwell,52.75,1.1
Whitwell,51.87644,-0.283159997
Whitwell,50.5984400,-1.2642
Whittonstall,54.90919,-1.88845
Whitton,51.44941,-0.356880000
Whitton,55.48333,-2.38333
Whitton,53.7,-0.63333000
Whitton,52.3,-3.06667000
Whitton,52.08333,1.13333
Whittlesford,52.11345,0.149690000
Whittlesey,52.5580400,-0.13016
Whittlebury,52.0902700,-0.9922
Whittington,54.1666706,-2.6
Whittington,53.26667,-1.4
Whittington,52.8732,-3.00304
Whittington,52.6737206,-1.76090998
Whittington,51.89085,-1.98860998
Whittingham,55.40115,-1.8934
Whittingehame,55.95227,-2.63268
Whitstable,51.3607,1.0257
Whitsome,55.74876,-2.21758
Whitsbury,50.97118,-1.81965
Whitrigg,54.9,-3.2
Whitney,52.11667,-3.08333
Whitnash,52.27047,-1.52186
Whitmore,52.966670,-2.28333
Whitleybridge,53.69523,-1.15691
Whitley Bay,55.0397300,-1.44713
Whitley,53.6833300,-1.15
Whitley,52.39509,-1.49345
Whitland,51.81889,-4.61528
Whitkirk,53.80014,-1.455
Whitington,52.5641206,0.5303
Whithorn,54.7323204,-4.41559
Witherley,52.5763,-1.51907000
Whitgreave,52.85111,-2.14979000
Whitgift,53.69534,-0.76713
Whitford,53.283330,-3.28333000
Whitfield,54.9,-2.33333
Whitfield,52.05,-1.11667
Whitfield,51.16126,1.29003999
Whitewell,53.9186606,-2.52059000
White Waltham,51.49225,-0.77238999
Whitewall Corner,54.116670,-0.78333
Whitestone,50.7282,-3.60256996
Whitesides Corner,54.8,-6.35
White Roding,51.7988400,0.26571
Whiteparish,51.01041,-1.64855
White Notley,51.83549,0.59034
Whitekirk,56.024420,-2.65007
Whiteinch,55.8729800,-4.33089
Whitehouse Upper,54.633330,-5.91667
Whitehouse,54.65,-5.91667
Whitehouse,57.216670,-2.61667
Whitehouse,55.783330,-5.48333000
Whitehills,57.6773,-2.57863
Whitehead,54.75371,-5.70933000
Whitehaven,54.54897,-3.58411995
Whitehall,59.14,-2.602
Whitegate,53.216670,-2.55
Whitefield,53.55,-2.3
Whitefarland,55.61714,-5.39231
Whitecroft,51.75383,-2.55194
Whitechurch,51.9941700,-4.69611
Whitechurch,50.8,-2.23333
Whitechapel,51.51382,-0.06583
White Bridge,56.65,-4.0
White Ball,50.96188,-3.28833
Whiteabbey,54.66704,-5.89878
Whitcombe,50.68333,-2.4
Whitchurch Canonicorum,50.7552,-2.86017
Whitchurch,52.966670,-2.68332998
Whitchurch,51.8816,-0.83783999
Whitchurch,51.85,-2.65
Whitchurch,51.51167,-3.22083
Whitchurch,51.49266,-1.08825
Whitchurch,51.40606,-2.56265
Whitchurch,51.22995,-1.33904
Whitchurch,52.13412,-1.68953
Whitchurch,50.53333,-4.13333
Whitby,54.48774,-0.61498
Whitburn,55.866670,-3.68333
Whitburn,54.95333,-1.36861
Whitbourne,52.2107,-2.40578
Whitbeck,54.24346,-3.35308000
Whiston,53.40851,-1.3151
Whiston,52.2378400,-0.75711000
Whissonsett,52.77205,0.84167
Whisby,53.2,-0.65
Whipsnade,51.851286,-0.53446
Whippingham,50.73747,-1.26862
Whimple,50.7664900,-3.35655
Whickham,54.945609999999995,-1.67635
Whetstone,52.5666705,-1.18333
Whetstone,51.63333,-0.16667
Wherwell,51.16697,-1.44299
Wherstead,52.02262,1.13832
Whepstead,52.19209,0.68158
Whenby,54.1213,-1.03882
Whempstead,51.8711900,-0.08463
Whelford,51.68829,-1.75769000
Wheldrake,53.89624,-0.96302999
Wheelock,53.12875,-2.37292
Wheaton Aston,52.71145,-2.22064
Wheatley,51.74731,-1.13936
Wheathampstead,51.811486,-0.293709997
Whauphill,54.8181,-4.48531
Whatton,52.94605,-0.8917
Whatstandwell,53.0844300,-1.50386
Whatlington,50.93782,0.50529
Whatfield,52.07866,0.95117999
Whatcote,52.09905,-1.56313
Wharton,53.1949605,-2.50483
Wharram Percy,54.0675,-0.68968000
Wharram le Street,54.08197,-0.67873
Wharncliffe Side,53.4503,-1.55335
Whaplode,52.79934,-0.03639
Whalton,55.12699,-1.79752
Whalley,53.82209,-2.40712
Whaligoe,58.35,-3.16667
Whaley Bridge,53.33031,-1.9826
Whaddon,52.10105,-0.03442
Whaddon,52.00042,-0.82801
Weymouth,50.61448,-2.45991
Weyhill,51.21925,-1.55015
Weybridge,51.37178,-0.45975
Weybread,52.3743900,1.29587
Weybourne,52.9429204,1.14095
Wetwang,54.0175,-0.57738
Wetton,53.09536,-1.83857999
Wetleyrocks,53.033330,-2.05
Wethersfield,51.95358,0.48885
Wetheringsett,52.2570200,1.11477
Wetherby,53.92836,-1.38672000
Wetheral,54.884009,-2.83327
West Wratting,52.14265,0.34676
West Worthing,50.81046,-0.39027
West Worlington,50.90702,-3.75092
West Worldham,51.1258,-0.94082999
West Woodhay,51.3646,-1.43808999
West Woodburn,55.17637,-2.17096
Westwood,51.33462,-2.27975
West Witton,54.291370,-1.90767998
West Wittering,50.78076,-0.89572999
West Winterslow,51.08984,-1.67048
West Wickham,52.11715,0.35435
West Wickham,51.36667,-0.0166699997
West Wemyss,56.1402400,-3.08475
West Wellow,50.97273,-1.58293
Westwell,51.7881,-1.67699998
Westward Ho!,51.03883,-4.23806
Westward,54.7934606,-3.13059
West Walton,52.697820,0.17406
West Tofts,52.5011,0.70531
West Tisted,51.0590900,-1.06276
West Tilbury,51.47668,0.3895
West Thurrock,51.47828,0.276719997
West Thorney,50.815909999999995,-0.91048999
West Thirston,55.2949400,-1.70925998
West Tarbert,55.853420,-5.4396900
West Tanfield,54.20496,-1.58818
West Stratton,51.16075,-1.24467000
West Stow,52.3046,0.66708
West Stourmouth,51.31801,1.23339
West Stonesdale,54.4151300,-2.17117
West Stoke,50.86667,-0.81667
West Stockwith,53.4430000,-0.81361
West Scrafton,54.24821,-1.88900999
West Saltoun,55.896,-2.85996
Westruther,55.74199,-2.58452
West Runton,52.9376,1.24386
West Rudham,52.819170,0.69386
West Row,52.35117,0.46121
West Rounton,54.424720,-1.36466
West Raynham,52.79266,0.77641
West Ravendale,53.4817604,-0.151940000
West Rasen,53.3896,-0.404269996
West Rainton,54.8166705,-1.5
West Quantoxhead,51.16787,-3.27313
West Putford,50.91887,-4.33286
East Prawle,50.215309999999995,-3.70891996
West Pilton,55.966670,-3.25
West Pennard,51.14074,-2.64676
West Peckham,51.25246,0.336109996
West Parley,50.771209,-1.87892000
Westow,54.0775704,-0.84921
West Ord,55.75,-2.06667000
West Orchard,50.94775,-2.25319
Westonzoyland,51.1085400,-2.92843
Weston upon Trent,52.8333300,-2.03333
Weston upon Trent,52.84835,-1.40119
Weston Underwood,52.9792400,-1.56581000
Weston Underwood,52.14574,-0.73861999
Weston under Penyard,51.907785,-2.53690998
Weston under Lizard,52.69491,-2.28918
Weston Turville,51.79168,-0.75767
Weston-super-Mare,51.34603,-2.97665
Weston Subedge,52.05,-1.81667
Weston Point,53.32642,-2.75649000
Weston Patrick,51.2185,-1.014
Weston on the Green,51.86425,-1.22875
Weston on Avon,52.16514,-1.76837
Weston Lullingfields,52.8186900,-2.85460996
Weston in Gordano,51.46444,-2.79667
Westoning,51.9814,-0.496980000
Weston Corbett,51.21887,-1.01675
Weston,53.9166706,-1.73333
Weston,53.3166705,-2.73333
Weston,53.202320,-0.84093999
Weston,53.0666705,-2.4
Weston,52.85467,-2.64698
Weston,52.8050400,-0.08892
Weston,52.4333300,1.56667
Weston,52.11757,-1.14052
Weston,51.95471,-0.17035
Westoe,54.9884606,-1.41798999
West Norwood,51.43164,-0.10265
Westnewton,55.55,-2.15
West Myne,51.21667,-3.53333000
Westmuir,56.65,-3.03333
West Monkton,51.0494400,-3.05417
West Molesey,51.39985,-0.37997
City of Westminster,51.4975,-0.1357
Westmill,51.9257400,-0.0115900000
Westmeston,50.9069306,-0.09888
West Mersea,51.77798,0.91872999
West Meon,51.0124,-1.08833
West Melton,53.50415,-1.358
West Marton,53.9502205,-2.1633
West Malling,51.29273,0.40907
West Lydford,51.08222,-2.62222
West Lutton,54.11246,-0.57521
West Lulworth,50.62614,-2.24679000
West Looe,50.4,-4.41667
West Linton,55.7497206,-3.35607
Westley Waterless,52.18183,0.36671
Westley,52.25,0.66667
West Lexham,52.71781,0.72393000
Westleton,52.26469,1.57456
Westleigh,51.03333,-4.1833300
West Leake,52.833880,-1.21553
West Laroch,56.6666706,-5.15
West Langwell,58.05,-4.2
West Langdon,51.17665,1.31733
West Kyo,54.883330,-1.73333
West Knoyle,51.08782,-2.20762
West Kirby,53.37302,-3.18417
West Kington,51.49552,-2.27282000
West Kilbride,55.69004,-4.85771
West Kensington,51.4908305,-0.206680000
West Keal,53.1496,0.0478899995
West Kames,56.049609999999994,-5.34519000
Itchenor,50.805609999999994,-0.86688999
West Hythe,51.06589,1.02877
Westhouses,53.11622,-1.36927
Westhoughton,53.54899,-2.52464
West Horsley,51.2603306,-0.455630000
West Hoathly,51.077,-0.0550600000
Westhide,52.09463,-2.60596
West Heslerton,54.1722206,-0.60755
Westhead,53.562880,-2.84363
West Hauxwell,54.34134,-1.77078
West Hatch,50.98333,-3.0
West Hartlepool,54.6833300,-1.2
West Harting,50.98702,-0.8917
West Harptree,51.3091,-2.63175
West Hanningfield,51.6694700,0.50657
West Hanney,51.63389,-1.4138
Westhampnett,50.84811,-0.75033
West Ham,51.53333,0.0166699997
West Halton,53.6775204,-0.63006000
West Hallam,52.97093,-1.35846
West Hagbourne,51.5864605,-1.2612
West Haddon,52.34168,-1.07803999
West Grinstead,50.97429,-0.33204
West Grimstead,51.03927,-1.70085998
West Gorton,53.46825,-2.20165
West Gerinish,57.35,-7.35
Westgate on Sea,51.38239,1.33673
Westgate,54.7387,-2.14371
West Firle,50.84475,0.08716
Westfield,55.9333300,-3.7
Westfield,51.88333,-1.86667
Westfield,50.91023,0.57553999
West Felton,52.824909,-2.97352
Wester Urray,57.533330,-4.48333000
Wester Rarichie,57.73333,-3.96666997
Wester Quarff,60.0951204,-1.26478
Westerleigh,51.51605,-2.43416
Wester Inverwick,57.1833300,-4.8
Westerham,51.26632,0.068920000
Wester Gaulrig,57.2,-3.38333000
Westerfield,52.08462,1.1715
Wester Fearn,57.85,-4.3
Westerdale,58.45,-3.5
Westerdale,54.4333300,-0.96667
Wester Clynekirkton,58.033330,-3.88333000
Westenhanger,51.0973,1.03907000
West End,50.927409999999995,-1.33282000
West Dulwich,51.43779,-0.09365
West Drayton,53.26667,-0.93332999
West Drayton,51.5,-0.46667
West Down,51.16667,-4.11667
West Dereham,52.5814800,0.44801
West Derby,53.4327900,-2.90963
West Dean,51.0426400,-1.63507
West Dean,50.9052,-0.7814
West Dean,50.77653,0.16171
West Cults,57.116670,-2.18332998
West Croachy,57.3,-4.25
Cranmore,51.18694,-2.475
West Cottingwith,53.85,-0.95
Westcott,51.84665,-0.9571
Westcott,51.22438,-0.37195
Westcote,51.86667,-1.68333
West Cornforth,54.70286,-1.51938
West Coker,50.91912,-2.68707000
West Clandon,51.26063,-0.50323000
Cilrhedyn,51.9854,-4.5063
West Chinnock,50.91822,-2.75875997
West Chiltington,50.9554,-0.449410000
West Chevington,55.2696,-1.64146
West Challow,51.5922400,-1.47105
West Chaldon,50.65,-2.31667000
West Canisbay,58.633330,-3.13333
West Calder,55.85188,-3.56981
West Byfleet,51.33764,-0.50649
West Butterwick,53.54232,-0.74247
Westbury on Severn,51.82374,-2.41193
Westbury,52.67856,-2.95433
Westbury,52.01695,-1.09314
Westbury,51.26,-2.1875
Westbury-sub-Mendip,51.23556,-2.71722
West Burton,54.283330,-1.96667000
West Buckland,51.06667,-3.91667
West Buckland,50.96667,-3.18332998
West Bromwich,52.51868,-1.9945
West Brompton,51.4869900,-0.190990000
West Bridgford,52.9297900,-1.12537
West Bretton,53.62039,-1.56823999
West End,52.6464,0.81753999
Westbourne,50.86188,-0.92551
West Boldon,54.94556,-1.45046
West Bergholt,51.912209999999995,0.84986000
West Bedfont,51.45016,-0.4664
West Beckham,52.9113900,1.18186000
West Bay,50.7108400,-2.76107
West Barsham,52.86885,0.82882000
West Barkwith,53.30896,-0.26193
West Barcloy,54.85,-3.78333000
West Bagborough,51.09364,-3.18497
West Auckland,54.6308800,-1.72131
West Ashton,51.2987700,-2.17379000
West Ashby,53.23376,-0.10467
West Anstey,51.03456,-3.63790998
West Alvington,50.28013,-3.79234000
West Acre,52.7,0.63333000
West Aberthaw,51.39228,-3.40329
Wervin,53.2411205,-2.86825
Werrington,52.61405,-0.27234
Werrington,50.66667,-4.36667
Wereham,52.58583,0.48118
Weobley,52.1596,-2.875
Wenvoe,51.4477605,-3.26369
Wentworth,51.4,-0.58333
Wentworth,53.4781605,-1.415
Wentnor,52.52938,-2.90931
Wensley,54.3,-1.85
Wennington,54.1250800,-2.58595
Wenhaston,52.32653,1.55627999
Wendy,52.1115400,-0.069179999
Wendron,50.13333,-5.25
Wendover,51.76194,-0.73986000
Wendling,52.678880,0.85307000
Wendlebury,51.87172,-1.18652
Wendens Ambo,52.00354,0.20119
Wemyss Bay,55.87614,-4.8895
Wembury,50.3227200,-4.07529
Wembley,51.55242,-0.29686
Wem,52.85835,-2.71826
Welwyn Garden City,51.80174,-0.206909998
Welwyn,51.8331,-0.21359
Welwick,53.6682400,0.03155
Welton le Wold,53.36531,-0.086570000
Welton,54.783330,-3.0
Welton,53.73211,-0.55232
Welton,53.3,-0.483330000
Welton,52.28935,-1.14977000
Welshpool,52.65973,-3.1471
Welshampton,52.90985,-2.83853
Welney,52.522909,0.24829
Wells of Ythan,57.4166706,-2.6
Wells-next-the-Sea,52.9516400,0.8511
Wells,51.20794,-2.64895998
Wellow,53.1868606,-0.99788999
Wellow,51.32444,-2.37417
Wellington,52.7,-2.51667
Wellington,52.12934,-2.74214
Wellington,50.98005,-3.23067
Wellingore,53.1001605,-0.53133999
Wellingham,52.7653206,0.77155
Wellingborough,52.30273,-0.69446000
Welling,51.46246,0.10759
Wellesbourne Mountford,52.19246,-1.60967000
Wellesbourne,52.19709,-1.59053
Welland,52.0575605,-2.2994
Well,54.23333,-1.58333
Welford,52.41706,-1.05871
Welford,51.45727,-1.41131
Weldon,52.496170,-0.63731
Welcombe,50.93784,-4.52327
Welby,52.9331205,-0.55069
Welbury,54.41568,-1.38852998
Welburn,54.25,-0.95
Welbourn,53.0758800,-0.55876
Welborne,52.65,1.05
Weeton,53.9166706,-1.56667
Weeton,53.82154,-2.93869000
Weeting,52.4644,0.61485
Weethley,52.1932200,-1.92827000
Weem,56.6291,-3.88259
Weeley,51.8580605,1.1163
Week Saint Mary,50.75,-4.5
Weekley,52.4173900,-0.69753999
Weeke,51.06667,-1.33333
Weeford,52.63239,-1.79232000
Weedon Beck,52.22955,-1.08371
Weedon,51.85603,-0.81951000
Wednesfield,52.5963,-2.08508
Wednesbury,52.5514,-2.02355
Wedmore,51.2272700,-2.81152000
Wedderlie,55.75,-2.56667000
Weaverthorpe,54.124370,-0.52413
Weaverham,53.2601800,-2.57291
Weathercote,54.1833300,-2.4
Weaste,53.48465,-2.30883
Weasenham,52.76667,0.75
Wear Head,54.75,-2.21667
Weare Giffard,50.9769306,-4.17165
Weare,51.2705900,-2.84267
Wealdstone,51.59398,-0.333619997
Weald,51.2478400,0.1878
Waxholme,53.7411,0.00893
Waxham,52.77965,1.61577000
Wawne,53.81709,-0.34843
Wavertree,53.39816,-2.91567
Waverton,54.8160205,-3.20887
Waverton,53.1666706,-2.8
Wavendon,52.02541,-0.67411
Warehorne,51.05788,0.8393
Hermon,51.95,-4.38333
Wauldby,53.75,-0.53333
Watton at Stone,51.85842,-0.11381
Watton,53.9333300,-0.45
Watton,52.5666705,0.83332999
Wattisham,52.12543,0.93863999
Wattisfield,52.33064,0.94747999
Watten,58.472620,-3.30589
Watlington,52.6744,0.391169996
Watlington,51.64327,-1.00447998
Wath upon Dearne,53.50291,-1.3458
Wath,54.1833300,-1.5
Wath,54.1,-1.76667
Watford,52.31687,-1.1158
Watford,51.65531,-0.39602
Waterside,57.3333300,-2.0
Waterside,55.3463,-4.4656
Waterperry,51.75432,-1.09306000
Water Orton,52.51575,-1.74005
Water Newton,52.56106,-0.36435
Seaforth,53.466670,-3.01667
Waterlooville,50.88067,-1.0304
Wateringbury,51.25543,0.42317
Waterhouses,54.76667,-1.71667000
Waterhouses,53.033330,-1.86667
Waterfall,53.05,-1.88333
Waterden,52.88975,0.80441000
Waterbeck,55.08701,-3.1817
Waterbeach,52.26553,0.191229998
Watchfield,51.61322,-1.64821
Watchet,51.18189,-3.33079000
Wass,54.2066300,-1.15091
Wasperton,52.22783,-1.61191
Waskerley,54.80372,-1.92295998
Wasing,51.37491,-1.17554
Washington,54.9,-1.51667
Washington,50.90487,-0.40649
Washingborough,53.22425,-0.47485
Washford,51.16083,-3.36194
Washfield,50.9281,-3.51635
Warwick-on-Eden,54.90356,-2.82949000
Warwick,52.28333,-1.58333
Warton,54.14715,-2.76435
Warton,53.7498800,-2.89335
Wartnaby,52.8022,-0.94492000
Wartling,50.85879,0.35431
Warthill,53.98978,-0.97173
Warter,53.94216,-0.67852
Warsop,53.21402,-1.15091
Warslow,53.125809999999994,-1.87285
Warsash,50.85331,-1.3003
Warrington,53.3925400,-2.58024000
Warrington,52.1844604,-0.68758999
Warrenpoint,54.10148,-6.25730995
Warrenby,54.61714,-1.09702
Warren,53.23333,-2.16667
Warren,51.63778,-4.98944
Warnham,51.09107,-0.34847
Warnford,51.0038400,-1.1158
Warmsworth,53.4969604,-1.18211
Warmley,51.46004,-2.47811
Warminster,51.20434,-2.17873
Warmington,52.5068400,-0.410830000
Warmington,52.1253700,-1.40372
Warmingham,53.14651,-2.43713
Warlingham,51.30953,-0.05794
Warleggan,50.4916200,-4.60042
Warkworth,55.35,-1.61667
Warkworth,52.05959,-1.28982
Warkleigh,50.98972,-3.93555997
Wark,55.64074,-2.28025997
Wark,55.086230,-2.22267
Waringstown,54.434309,-6.29929
Waringsford,54.366670,-6.11667
Waringfield,54.466670,-6.23333000
Warham,52.93733,0.89744
Wargrave,51.500686,-0.86577
Warfield,51.44213,-0.72802
Waresley,52.1750900,-0.17406
Warenford,55.549830,-1.78442000
Wareham,50.68792,-2.11058
Ware,51.81058,-0.02875
Wardle,53.65,-2.13333
Wardington,52.11394,-1.28512
Warden,54.98333,-2.13333
Warden,51.40748,0.90556
Warcop,54.53572,-2.39107
Warburton,53.4019,-2.45254
Warbstow,50.68744,-4.53982
Warboys,52.40352,-0.07931
Warborough,51.63864,-1.13691
Warbleton,50.93983,0.28916
Wappenham,52.10629,-1.08833
Wantage,51.58846,-1.42565
Wanstrow,51.17389,-2.41278
Wanstead,51.5768,0.0246300000
Wansford,53.99468,-0.38147
Wansford,52.578509999999994,-0.420010000
Wanlockhead,55.398,-3.7779
Wangford,52.3557400,1.62237
Wandsworth,51.4577,-0.20784
Wanborough,51.5426306,-1.69837000
Wambrook,50.86504,-3.00546
Walworth,51.48333,-0.1
Walworth,54.5666705,-1.65
Walton West,51.77352,-5.09835
Walton upon Trent,52.75889,-1.6749
Walton-on-Thames,51.38678,-0.413189995
Walton-on-the-Naze,51.84819,1.26738
Walton,53.44947,-2.96614
Walton on the Hill,51.2829606,-0.24805
Walton le Wolds,52.772030,-1.12421
Walton le Dale,53.73333,-2.66667
Walton in Gordano,51.45306,-2.82694
Walton East,51.875,-4.8775
Walton,54.966670,-2.73333
Walton,52.6,-0.266669996
Walton,52.4777400,-1.12494
Walton,51.96667,1.35
Walton,51.12389,-2.77110997
Walthamstow,51.59067,-0.02077
Waltham St Lawrence,51.48507,-0.80698
Waltham on the Wolds,52.816980,-0.80835
Waltham Holy Cross,51.68333,0.03333
Waltham Cross,51.68602,-0.03575
Waltham Abbey,51.687,-0.00421
Waltham,53.51667,-0.1
Waltham,51.1977900,1.01632000
Waltham,50.9,-0.66667
Walston,55.69483,-3.49834000
Walsoken,52.6719705,0.188309998
Walsham le Willows,52.30236,0.93082999
Walsgrave on Sowe,52.42548,-1.44535
Walsden,53.69361,-2.10000997
Walsall Wood,52.62676,-1.93165
Walsall,52.5852800,-1.98396
Walpole Saint Peter,52.72902,0.2223
Walpole Saint Andrew,52.73551,0.222040000
Walpole,52.73333,0.23333
Walpole,52.31803,1.46891
Walmsgate,53.2835300,0.04705
Walmersley,53.6197204,-2.29281
Walmer,51.2029,1.38685
Wallsend,54.99111,-1.53397
Walls,60.22874,-1.56313
Wallington,51.98785,-0.118979999
Wallington,51.36404,-0.153679998
Wallington,50.85,-1.16667
Wallingford,51.59982,-1.1248
Wall Houses,55.0107704,-1.94024000
Wallerscote,53.25,-2.53333
Wallasey,53.42324,-3.06497
Wall,55.0,-2.13333
Walkley,53.3945800,-1.5024
Walkington,53.8195,-0.48958
Walkhampton,50.50939,-4.07226
Walkern,51.91888,-0.12758
Walkerith,53.427430,-0.81645
Walkeringham,53.425509,-0.8441
Walker Gate,54.98333,-1.56667
Walkerburn,55.62328,-3.01468
Walker,54.97449,-1.55349
Walkden,53.51667,-2.4
Walgrave,52.3404,-0.82509
Walford,52.8,-2.83333
Walford,51.88333,-2.6
Walesby,53.41621,-0.2963
Walesby,53.2289300,-0.97932999
Wales,53.34061,-1.28162
Waldron,50.95237,0.20453
Waldringfield,52.0527,1.32531
Waldershare,51.18795,1.26051
Walcott,52.83837,1.50207999
Walcott,53.09469,-0.31311
Walcot,52.903,-0.425380000
Walcot,52.7,-2.6
Walberton,50.84475,-0.62013000
Walberswick,52.3132,1.65379
Wakerley,52.584530,-0.5918
Wakefield,53.68331,-1.49768
Wainscott,51.4124606,0.51267
Wainfleet All Saints,53.1057,0.23583
Waunfawr,53.11,-4.2012
Wadworth,53.4672606,-1.14261000
Wadsley,53.40945,-1.52114
Wadhurst,51.0623,0.339290000
Wadenhoe,52.4419,-0.51447
Wadebridge,50.5173400,-4.83633
Waddingworth,53.22376,-0.221830000
Waddington,53.88977,-2.41459
Waddington,53.1666706,-0.53333
Waddingham,53.4532,-0.52011000
Waddesdon,51.84675,-0.92105
Wadborough,52.1265,-2.14404
Wacton,52.4786,1.2088
Wacton,52.21667,-2.56667000
Waberthwaite,54.3292704,-3.37899996
Vowchurch,52.02393,-2.9376
Voe,60.51667,-1.38333
Voe,60.3556205,-1.2623
Virley,51.78935,0.81591
Virkie,59.88665,-1.30767
Virginstow,50.71072,-4.29814
Vigo,52.33333,-2.01667
Victoria Park,51.53838,-0.03669
Victoria,51.75,-3.2
Vickerstown,54.10481,-3.24948
Veryan,50.21909,-4.92419
Verwood,50.87575,-1.87022998
Ferwig,52.11365,-4.65546
Vernham Dean,51.30704,-1.51197
Ventnor,50.59449,-1.20672
Venn Ottery,50.71312,-3.30489000
Velindre-farchog,52.01667,-4.76666995
Velindre,52.01667,-3.18332998
Velindre,52.0,-4.4
Vaul,56.53504,-6.80165
Vatisker,58.283330,-6.3
Varteg Hill,51.75,-3.06667000
Vange,51.55938,0.482839994
Van,52.466670,-3.55
Valtos,58.22444,-6.95074
Valley,53.2849,-4.56644
Uzmaston,51.79222,-4.94417
Uxbridge,51.5489,-0.482110000
Uttoxeter,52.89838,-1.86487999
Utterby,53.42099,-0.03198
Utley,53.866670,-1.91667
Usworth,54.9195400,-1.52568
Usselby,53.4277,-0.350319996
Usk,51.70347,-2.90332
Ushaw Moor,54.77803,-1.6472
Urray,57.533330,-4.48333000
Urquhart,57.64875,-3.19422
Urmston,53.4485205,-2.35419
Urchfont,51.31217,-1.94292
Urchany,57.51667,-3.86666996
Upwood,52.42608,-0.14909
Upwey,50.660309,-2.46824
Upwell,52.60249,0.2219
Upton Warren,52.305209999999995,-2.10495997
Upton upon Severn,52.06258,-2.21802
Upton Snodsbury,52.18844,-2.08494
Upton Scudamore,51.23,-2.19333
Upton Pyne,50.76667,-3.55
Upton Noble,51.15377,-2.41016
Upton Magna,52.70808,-2.66039
Upton Grey,51.22876,-1.00019
Upton Bishop,51.93934,-2.52557
Upton,53.61466,-1.28677
Upton,53.383330,-3.1
Upton,53.37124,-0.69607
Upton,53.080909,-0.90441
Upton,52.65843,1.54476000
Upton,52.59061,-0.36935
Upton,52.3918700,-0.27496
Upton,51.5774200,-1.26132
Upton,51.05028,-3.43721995
Upton,50.53333,-4.4333300
Upsall,54.27836,-1.30655
Uppingham,52.58803,-0.72272
Upper Winchendon,51.8228306,-0.91856
Upper Swell,51.93934,-1.74452
Upper Sundon,51.9383900,-0.48185
Upper Stratton,51.5860900,-1.76672
Upper Stonnall,52.616670,-1.9
Upper Somborne,51.08936,-1.4338
Upper Slaughter,51.90721,-1.77549000
Upper Shader,58.39682,-6.47388
Upper Sapey,52.2677606,-2.46257
Upper Poppleton,53.979070,-1.15204
Upper Penn,52.55,-2.16667
Upper Norwood,51.41505,-0.0927
Upper Marden,50.92132,-0.86826
Upper Langwith,53.22919,-1.20695
Upperlands,54.8775,-6.64227
Upper Kilchattan,56.0666705,-6.21667
Upper Hulme,53.1458705,-1.98321
Upper Holloway,51.5648900,-0.135090000
Upper Heyford,51.93558,-1.25451
Upper Helmsley,54.00305,-0.94122000
Upper Hardres,51.2157606,1.08069
Upper Hambleton,52.6585300,-0.66982
Upper Hale,51.23468,-0.79874
Upper Farringdon,51.1103,-0.9803
Upper Eathie,57.6667,-4.0333
Upper Elkstone,53.12855,-1.9179
Upper Dounreay,58.5666705,-3.71666997
Upper Diabaig,57.5666705,-5.65
Upper Derraid,57.383330,-3.61666996
Upper Denton,54.98189,-2.60107
Upper Dean,52.29714,-0.46597
Upper Clatford,51.19129,-1.49517
Upper Clapton,51.563999,-0.058079999
Upper Chapel,52.0545,-3.44904
Upper Camster,58.35,-3.25
Upper Broughton,52.8286300,-0.9877
Upper Brailes,52.05621,-1.55589
Upper Bracky,54.5833300,-7.15
Upper Borth,52.479270,-4.0515
Upper Boddington,52.17651,-1.29595
Upper Beeding,50.88281,-0.305859997
Upper Bayble,58.2087,-6.21446995
Upper Arley,52.4189306,-2.34594
Upottery,50.86286,-3.13538
Upminster,51.55594,0.2556
Uplyme,50.73592,-2.9571
Uplowman,50.927,-3.40127
Upleatham,54.56624,-1.02267
Upleadon,51.93951,-2.36033
Uplawmoor,55.76475,-4.49611995
Up Holland,53.533330,-2.71667
Uphill,51.32365,-2.9807
Upham,50.98253,-1.23492999
Uphall,55.93025,-3.51104
Upchurch,51.3762,0.64789
Upavon,51.2946,-1.80791
Uny Lelant,50.18298,-5.44046995
Unstone,53.29055,-1.44196000
Unish,57.6,-6.63333
Undy,51.57526,-2.81453
Underbarrow,54.32201,-2.82004
Unapool,58.23333,-5.0
Umberleigh,50.99453,-3.9834
Ulwell,50.6271400,-1.97003
Ulverston,54.19594,-3.09626
Ulsta,60.5,-1.15
Ulrome,53.9919800,-0.229680000
Ulpha,54.3313400,-3.23539
Ullock,54.5988206,-3.43048
Ullingswick,52.1436,-2.59376
Ulley,53.382,-1.30222000
Ullesthorpe,52.48438,-1.25268999
Ulleskelf,53.85434,-1.21266
Ullenhall,52.30486,-1.82338
Ullapool,57.89872,-5.16039000
Ulgham,55.2247400,-1.63636
Uley,51.68417,-2.30583
Uldale,54.7217400,-3.16685
Ulcombe,51.2105700,0.64455
Ulceby,53.616670,-0.33333
Ulceby,53.216670,0.13333
Ulbster,58.35423,-3.15678
Uisken,56.3147,-6.237
Uig,58.2,-7.0
Uig,57.584530,-6.3549
Uig,57.466670,-6.6833300
Ugthorpe,54.49029,-0.77531
Ugley,51.9368606,0.210030000
Ughill,53.40973,-1.61358
Ugborough,50.38727,-3.86211996
Ugadale,55.5018,-5.5166
Ufton,52.25607,-1.44692998
Ufford,52.62379,-0.38435
Ufford,52.1268,1.34896
Uffington,52.6570206,-0.432239996
Uffington,51.602509999999995,-1.55997
Uffculme,50.9060400,-3.32746
Udimore,50.93853,0.65987
Uddingston,55.81971,-4.08362
Uckfield,50.96948,0.09589
Ubley,51.32141,-2.678
Uags,57.35,-5.78333
Tywardreath,50.3576606,-4.69342
Tytherton Lucas,51.46778,-2.07639
Tytherington,51.5925,-2.47972
Tythegston,51.4963900,-3.64833
Tyseley,52.45349,-1.83877
Tyringham,52.11388,-0.74561
Tyrie Mains,57.65,-2.1
Tyrella,54.2575704,-5.77881
Tynron,55.2163,-3.8781
Tynemouth,55.0178800,-1.42559
Tyneham,50.62255,-2.16845
Tyndrum,56.43614,-4.71326
Tynan,54.3333300,-6.83333
Tyldesley,53.51393,-2.46754
Tyes Cross,51.06667,-0.0166699997
Tydd Saint Mary,52.74585,0.13664
Tydd Saint Giles,52.72818,0.111059999
Tycroes,51.7780606,-4.02
Tyburn,52.51944,-1.80127000
Tyberton,52.0455,-2.90414
Twywell,52.3945306,-0.60392
Twyn Llanan,51.90453,-3.81198
Twynholm,54.86648,-4.08324
Twyford,52.68445,-0.92371
Twyford,51.47518,-0.86037000
Twyford,51.02218,-1.3151
Twycross,52.641070,-1.50341000
Two Bridges,50.5574,-3.96358000
Twitchen,51.0605605,-3.72972
Twineham,50.96632,-0.21084
Twickenham,51.44489,-0.3377
Twerton,51.3791306,-2.39315
Twenty,52.7709900,-0.29114
Tweedsmuir,55.5053400,-3.43296
Tweedmouth,55.7662,-2.01209
Tudweiliog,52.9,-4.61667
Twatt,60.26667,-1.41667
Tuxford,53.23004,-0.89325
Tuttington,52.79695,1.30059
Tutbury,52.8560204,-1.68649
Turville,51.61381,-0.8932
Turvey,52.16285,-0.62528000
Turton,53.633330,-2.4
Turriff,57.5384,-2.45932
Turrerich,56.51667,-3.86666996
Turnhouse,55.95483,-3.3443
Turners Puddle,50.7401400,-2.24214
Turners Hill,51.10341,-0.08514
Turnditch,53.01543,-1.56146
Turnchapel,50.358509999999995,-4.1177
Turnberry,55.31332,-4.82815
Turnastone,52.02398,-2.94833
Tur Langton,52.54415,-0.94687000
Turkdean,51.85536,-1.84605
Tunworth,51.23231,-1.02834
Tunstall,54.35,-1.66667
Tunstall,54.15,-2.6
Tunstall,53.76875,-0.02008
Tunstall,52.14373,1.44646
Tunstall,51.32589,0.72132
Tummel Bridge,56.70754,-4.02104
Tumby,53.1211400,-0.15048
Tullyverry,55.033330,-7.08333
Tullynessle,57.264820,-2.73427
Tullymurry,54.24905,-6.29645
Tullybelton,56.4851300,-3.55974
Tullyardan,55.05,-7.26666995
Tullyallen,54.48333,-6.88333
Tully,54.45,-7.78333
Tully,54.1833300,-7.63333
Tulliemet,56.65,-3.61666996
Tullaghoge,54.6,-6.73333000
Tuirnaig,57.783330,-5.5666699
Tugford,52.48058,-2.6535
Tugby,52.60174,-0.87571
Tufton,51.21723,-1.34522
Tudeley,51.18397,0.31676
Tuddenham St Mary,52.31257,0.54661
Tuckingmill,50.2317,-5.28636
Trysull,52.54622,-2.22004
Trusthorpe,53.32489,0.2706
Trusley,52.91499,-1.62355
Trusham,50.627309999999994,-3.62131
Truro,50.26526,-5.05436
Trunch,52.8621400,1.3966
Trumpington,52.17214,0.112609999
Trumpan,57.55,-6.61667
Trumisgarry,57.65,-7.25
Trull,50.99443,-3.12194
Trowse Newton,52.61212,1.31862000
Trowell,52.95309,-1.28201
Trowbridge,51.31889,-2.20860997
Troutbeck,54.417130,-2.91480997
Trotton,50.99626,-0.81179
Trottiscliffe,51.3157,0.35319
Trostrey,51.73944,-2.90861
Trostre,51.675986,-4.13667
Troston,52.31478,0.78398
Troon,55.54359,-4.66335
Troedyrhiw,51.71252,-3.3466
Troedyraur,52.081386,-4.44233
Tring,51.794709999999995,-0.65823999
Trinafour,56.755170,-4.08641
Trimley Heath,51.98333,1.31667
Trimingham,52.89846,1.38107
Trimdon Grange,54.71414,-1.42611
Trimdon,54.6987800,-1.42881000
Trillick,54.45,-7.5
Trewen,50.61667,-4.46667
Trevor,52.992909999999995,-4.42646
Trevor,52.9743,-3.09555
Trefin,51.94917,-5.14471995
Trevilley,50.08333,-5.6833300
Treuddyn,53.1148,-3.12003
Tretower,51.884486,-3.18305
Tre-Taliesin,52.5039705,-3.97908
Treswell,53.3041900,-0.82516
Tresta,60.24326,-1.34745
Tresmeer,50.65961,-4.50114
Trescott,52.5710900,-2.22648
Treorchy,51.65958,-3.50587
Trent Vale,52.98775,-2.20219000
Trentishoe,51.22006,-3.93937
Trentham,52.96841,-2.1885
Trent,50.96479,-2.58047
Treneglos,50.66457,-4.5377199
The Trench,54.6666706,-6.01666995
Trench,52.716670,-2.46667
Tremeirchion,53.24487,-3.37835
Tremaine,50.67222,-4.49704
Tremain,52.108909999999995,-4.57999000
Tremadoc,52.9333300,-4.15
Trelystan,52.62655,-3.09349
Trelleck,51.74175,-2.72547
Trelech-a'r-Bettws,51.9,-4.46667
Trelech,51.94444,-4.5
Treherbert,51.67139,-3.52971997
Treharris,51.66457,-3.30725
Trehafod,51.60882,-3.37891
Tregynon,52.5791300,-3.33267
Tre-groes,52.06667,-4.3166699
Tregoney,50.2674,-4.91646995
Tregarth,53.190120,-4.0878
Tregaron,52.2195,-3.93295
Trefriw,53.15138,-3.82573
Treforest,51.59353,-3.32474000
Trefonen,52.8333300,-3.1
Trefnant,53.22526,-3.4203
Trefilan,52.19384,-4.12177
Treffgarne,51.8741606,-4.96984000
Trefeglwys,52.5035205,-3.5191
Treeton,53.38564,-1.35189
Treen,50.18333,-5.6
Tredunnock,51.648585,-2.89849000
Tredington,51.96257,-2.14062
Tredegar,51.77251,-3.24679000
Trecwn,51.95518,-4.95977
Trecastle,51.94919,-3.62941996
Treborough,51.1177,-3.4141
Trawsfynydd,52.90212,-3.92289
Traquair,55.60111,-3.06379
Trantlebeg,58.45,-3.88333000
Tranent,55.9443900,-2.95412
Trailflat,55.15,-3.5
Trafford Park,53.4687900,-2.31194000
Tradeston,55.853870,-4.26313
Trabboch,55.4656204,-4.47051
Toynton St Peter,53.133330,0.1
Toynton All Saints,53.152020,0.08198
Toxteth,53.39069,-2.97103
Towyn,52.6,-4.08333
Gwbert,52.1166,-4.68599
Towton,53.85038,-1.26406
Town Yetholm,55.54546,-2.28745
Town Moor,54.98333,-1.61667
Townhill,56.0891,-3.43889000
Town Green,53.55,-2.9
Tow Law,54.74456,-1.81434
Towie,57.2034300,-2.92969000
Towednack,50.1904,-5.5210599
Towcester,52.1335900,-0.99057000
Tough,57.2,-2.65
Totton,50.91877,-1.49037
Tottington,53.61326,-2.34071
Tottington,52.51667,0.8
Totternhoe,51.88555,-0.57343
Totteridge,51.63333,-0.2
Tottenham,51.60373,-0.06794
Toton,52.9077900,-1.25847998
Totnes,50.43107,-3.6843
Totmonslow,52.95545,-2.01025997
Totley,53.31405,-1.54085
Totland,50.68466,-1.53688
Totaig,57.2689706,-5.52355
Tostock,52.2367400,0.8614
Toscaig,57.3828205,-5.80559000
Torworth,53.37565,-1.01441
Torwoodlee,55.63255,-2.84118
Torver,54.33854,-3.10223
Tortworth,51.6325,-2.43065
Torton,52.35071,-2.22693
Torthorwald,55.0897,-3.51505
Torryburn,56.057780,-3.56725
Torry,57.1365900,-2.08139000
Torroble,58.0036606,-4.38958000
Torrisholme,54.0663900,-2.82718
Torrin,57.2139706,-6.01306
Torrastan,56.6666706,-6.51666995
Torr,55.1833300,-6.0666699
Torquay,50.46198,-3.52521996
Torpoint,50.37505,-4.19566
Torphins,57.10561,-2.62398
Torphichen,55.9335300,-3.6546
Torpenhow,54.74605,-3.24069000
Torness,57.3166705,-4.38333
Tornahaish,57.16047,-3.16745
Tormore,57.04269,-5.93334
Tormarton,51.50711,-2.33552000
Torksey,53.29874,-0.74528
Torgulbin,56.9166706,-4.5666699
Tore,57.54104,-4.33216
Tordarroch,57.366670,-4.2
Torcastle,56.866670,-5.0666699
Torboll,57.966670,-4.1
Torbeg,55.51356,-5.32782
Topsham,50.6859604,-3.46696
Toppesfield,52.008109999999995,0.53128999
Topcliffe,54.1776900,-1.38821
Toot Baldon,51.70241,-1.18077
Toor,55.1,-6.28333
Toome,54.751970,-6.46116
Tonyrefail,51.58402,-3.43040997
Tongue,58.4762900,-4.41719
Tongland,54.863670,-4.03151995
Tongham,51.233985,-0.73059
Tonge,52.80401,-1.37707
Tong,53.7734706,-1.66425999
Tong,52.6666706,-2.3
Ton-fanau,52.6145400,-4.12206
Tonduff,55.23754,-6.48854
Tondu,51.5487900,-3.59589000
Tonbridge,51.19532,0.273630000
Tomnavoulin,57.31834,-3.31134
Tomintoul,57.2515,-3.37906996
Tomich,57.30409,-4.8128699
Tomdoun,57.0613205,-5.03105
Tomcrasky,57.1666706,-4.86667
Tomatin,57.33449,-3.99073
Tolpuddle,50.74866,-2.29081
Toab,59.89195,-1.31222000
Tolleshunt Major,51.76842,0.75368
Tolleshunt Knights,51.79869,0.77651
Tolleshunt D'Arcy,51.7722,0.79428
Tollesbury,51.75913,0.83462
Tollerton,54.0711,-1.21892998
Tollerton,52.9166706,-1.08333
Toller Porcorum,50.77944,-2.62119000
Tollcross,55.85,-4.1833300
Tollbar End,52.38333,-1.46667000
Tollard Royal,50.9596,-2.08054
Tolland,51.08117,-3.2812
Tole,57.45,-6.3
Tokavaig,57.133330,-5.96667
Toft next Newton,53.3809,-0.43325
Toft Monks,52.5035706,1.58169
Toft,52.18719,-0.0121900000
Todwick,53.3537300,-1.25673
Todmorden,53.71434,-2.09701
Todenham,52.02199,-1.65273
Toddington,51.98742,-1.93200998
Toddington,51.9492200,-0.53277
Todber,50.98084,-2.28927998
Tockenham,51.512409,-1.94515
Toberonochy,56.21773,-5.6329999
Tobermory,56.621980,-6.07231
Tobermore,54.8166705,-6.7
Tixall,52.801980,-2.03556
Tivetshall St Margaret,52.43111,1.18953
Tiverton,53.133330,-2.66667
Tiverton,50.902409,-3.49232
Tittleshall,52.7533300,0.80061
Titsey,51.276309999999995,0.0182
Titley,52.23446,-2.98104
Tithby,52.92519,-0.96278999
Titchwell,52.961720,0.61266
Titchmarsh,52.40677,-0.49825
Titchfield,50.85115,-1.23716
Tissington,53.06685,-1.73819000
Tisbury,51.06283,-2.08058
Tirril,54.633109999999995,-2.77405
Tirphil,51.72118,-3.24624000
Tirley,51.9552900,-2.23758
Tiptree,51.8123,0.7454
Tipton Saint John,50.71817,-3.28741996
Tipton,52.52956,-2.06773
Tinwell,52.64629,-0.51498
Tinwald,55.11793,-3.56346997
Tintwistle,53.4713400,-1.97127
Tintinhull,50.9732900,-2.71371
Tinsley,53.4098605,-1.39463
Tingwall,60.1666706,-1.23333
Tingewick,51.99031,-1.04803999
Timworth,52.29006,0.71712
Timsbury,51.32444,-2.47917
Timsbury,51.01667,-1.5
Timperley,53.4,-2.33333
Timble,53.9719900,-1.72983
Timberscombe,51.16857,-3.49511
Timberland,53.1120300,-0.329119997
Tilty,51.9141,0.31878
Tilton,52.64343,-0.9032
Tilston,53.05701,-2.80878
Tilstock,52.93557,-2.68383
Tilshead,51.22974,-1.95097
Tilney Saint Lawrence,52.69979,0.28822
Tilmanstone,51.2147306,1.29398
Tillyminnate,57.383330,-2.83333
Tillyfourie,57.20072,-2.59182000
Tillyfour,57.1666706,-2.66667
Tillington,50.98888,-0.63442
Tillingham,51.69682,0.882
Tillinamolt,57.616670,-2.18332998
Tillicoultry,56.15251,-3.74015
Tilley,52.8333300,-2.73333
Tillery,57.283330,-2.13333
Tilehurst,51.45647,-1.0437
Tile Hill,52.38333,-1.58333
Tilbury Juxta Clare,52.03049,0.56825
Tilbury,51.46248,0.35856
Tilbrook,52.30835,-0.417869996
Tigh na Cruaiche,56.65,-4.66667
Tighnabruaich,55.9061300,-5.2336199
Tigharry,57.59969,-7.51495
Tifty,57.45,-2.36667
Tidmarsh,51.468709999999994,-1.08705
Tideswell,53.278070,-1.77292
Tidenham,51.65874,-2.64098
Tidcombe,51.3238,-1.58538
Tickton,53.862330,-0.3833
Ticknall,52.8117800,-1.47761
Ticklerton,52.512870,-2.76154
Tickhill,53.4319400,-1.10859
Tickencote,52.675030,-0.53696
Tichborne,51.06902,-1.18712000
Ticehurst,51.04652,0.4086
Tibthorpe,53.98661,-0.53694
Tibshelf,53.14436,-1.34056
Tibenham,52.4637,1.14451000
Tibberton,52.77774,-2.47303
Tibberton,51.9,-2.35
Thwing,54.1154705,-0.3895
Thwaite,54.37746,-2.16431
Thwaite,52.5,1.43333
Thwaite,52.2712306,1.09578
Thuxton,52.62542,1.00047
Thurton,52.55655,1.43313
Thurston,52.25244,0.80748999
Thurstaston,53.34913,-3.13255
Thurso,58.59271,-3.52594000
Thursley,51.14979,-0.71222
Thursford,52.86472,0.96125
Thursby,54.8426,-3.0509
Thurning,52.8166705,1.1
Thurning,52.43309,-0.40426
Thurnby,52.63307,-1.04417
Thurlton,52.52881,1.55617
Thurlstone,53.5273,-1.64975
Thurloxton,51.06913,-3.03810996
Thurlow,52.12495,0.450439995
Thurlestone,50.26932,-3.86264000
Thurleigh,52.21471,-0.463539995
Thurlby,52.73879,-0.37868
Thurlaston,52.33526,-1.31475
Thurgarton,53.03585,-0.96499
Thurgarton,52.866670,1.25
Thurcaston,52.6922800,-1.15935
Thundridge,51.83628,-0.03472
Thundersley,51.56395,0.57438
Thundergay,55.6666706,-5.36667
Thrybergh,53.44895,-1.29928
Thruxton,52.0,-2.81667000
Thruxton,51.208709,-1.58426
Thrushelton,50.6799604,-4.19528
Thruscross,54.0221,-1.76888
Thrumster,58.39026,-3.13572
Throwleigh,50.7011604,-3.88665
Thropton,55.31459,-1.95759000
Throckmorton,52.1451400,-2.0302
Throckley,54.99475,-1.75541
Thriplow,52.09964,0.09641
Thrintoft,54.333709,-1.50616
Thringstone,52.750009,-1.3678
Threxton,52.5666705,0.78333
Threshfield,54.0687,-2.01615997
Threlkeld,54.61965,-3.04990997
Three Legged Cross,50.85,-1.88333
Threekingham,52.912470,-0.380569996
Three Bridges,51.11737,-0.173340000
Threapwood,53.0,-2.83333
Thrapston,52.39675,-0.5392
Thorverton,50.80794,-3.52815997
Thorrington,51.84124,1.03888999
Thorpe Waterville,52.42203,-0.494980000
Thorpe Thewles,54.6041,-1.3806
Thorpe Satchville,52.69823,-0.91662000
Thorpe Salvin,53.32379,-1.21752000
Thorpe St Peter,53.116670,0.216669997
Thorpe St Andrew,52.633330,1.35
Thorpe on the Hill,53.17918,-0.64138000
Thorpeness,52.18012,1.61327
Thorpe le Soken,51.85603,1.1658
Thorpe Langton,52.5252900,-0.90809
Thorpe Constantine,52.67847,-1.61797000
Thorpe,53.05,-1.75
Thorpe,51.40595,-0.53567
Thorp Arch,53.91584,-1.3198
Thoroton,52.97289,-0.86572999
Thornton Watlass,54.26455,-1.64134000
Thornton Steward,54.279170,-1.72805
Thornton le Moors,53.26667,-2.83333
Thornton le Moor,53.45,-0.41667
Thornton le Fen,53.04942,-0.103140000
Thornton Heath,51.39884,-0.09872
Thornton Dale,54.23528,-0.72016
Thornton Curtis,53.6456800,-0.35604
Thornton,56.1666706,-3.15
Thornton-in-Craven,53.93136,-2.14610997
Thornton,53.9,-0.85
Thornton,53.866670,-3.01667
Thornton,53.783330,-1.85
Thornton,53.5,-3.0
Thornton,52.6651706,-1.31285
Thornton,52.0159,-0.90569
Thornley,54.75,-1.43333
Thornhill,56.17318,-4.1506
Thornhill,55.23333,-3.76666995
Thornhill,53.6666706,-1.63333
Thornhaugh,52.592520,-0.42418
Thornham Parva,52.30928,1.10186
Thornham Magna,52.2942,1.08417
Thornham,52.95991,0.57953
Thorngumbald,53.7210000,-0.17175
Thorngrafton,54.982630,-2.34014000
Thornfalcon,51.0091700,-3.02508
Thorney,53.23333,-0.71667
Thorney,52.6214705,-0.10815
Thorner,53.86093,-1.42676
Thorne,53.6112206,-0.96307999
Thorndon,52.28333,1.13333
Thorncombe,50.82586,-2.88788
Thornby,52.37484,-1.01671
Thornbury,52.23333,-2.55
Thornbury,51.60889,-2.52028
Thornbury,50.85,-4.26666995
Thornborough,51.997009,-0.91782999
Thornaby-on-Tees,54.533330,-1.3
Thormanby,54.16799,-1.24797999
Thorley,51.8488,0.1419
Thorganby,53.85,-0.95
Thorganby,53.466670,-0.18333
Thoresway,53.45485,-0.2387
Thompson,52.5338400,0.83037999
Tholthorpe,54.0959800,-1.27685
Thockrington,55.10539,-2.06423
Thixendale,54.0434900,-0.71827
Thirtleby,53.79656,-0.217219997
Thirsk,54.2329800,-1.34411000
Thirlby,54.2492800,-1.25256000
Thirkleby,54.2,-1.26667
Thimbleby,53.212709999999994,-0.143720000
Theydon Bois,51.67426,0.097810000
Thetford,52.41667,0.75
Therfield,52.0164,-0.0533
Themelthorpe,52.77339,1.04684
Thelwall,53.38255,-2.52734
Thelbridge,50.9,-3.71666997
The Hyde,51.58638,-0.24579
Theddlethorpe St Helen,53.366670,0.216669997
Theddlethorpe All Saints,53.36056,0.2099
Theddingworth,52.465080,-1.01973999
Theberton,52.2378400,1.56684
Theale,51.43694,-1.077
Theale,51.21389,-2.76917
Thaxted,51.95326,0.344780000
Thatto Heath,53.43571,-2.75883
Thatcham,51.4036605,-1.26048999
Thannington,51.26959,1.05434
Thankerton,55.62631,-3.63289
Thames Haven,51.50762,0.51138000
Thames Ditton,51.38964,-0.33928
Thame,51.7484,-0.97624
Thakeham,50.94437,-0.42315
Thainstone,57.258620,-2.38163
Teynham,51.33045,0.80526000
Tewkesbury,51.99244,-2.1601
Tewin,51.81665,-0.15613
Teviothead,55.33876,-2.93880997
Teversham,52.20319,0.18969
Teversal,53.15,-1.28332999
Tettenhall,52.6020604,-2.16525
Tetsworth,51.70961,-1.00563999
Tetney,53.49239,-0.02106
Tetford,53.2534,-0.00234
Tetcott,50.74495,-4.36715
Tetbury,51.63944,-2.16222
Terrydremont,55.0,-6.91667
Terrington Saint John,52.7054605,0.27389
Terrington St Clement,52.75813,0.29732
Terrington,54.1272,-0.97488
Terreglestown,55.0666705,-3.65
Ternhill,52.885709,-2.54308
Terling,51.80612,0.56836999
Tenterden,51.06845,0.68776
Tendring,51.88333,-1.1
Tenby,51.67279,-4.70447
Tenbury Wells,52.31077,-2.59620997
Tempsford,52.17051,-0.29586
Tempo,54.383330,-7.46667
Templeton,51.77194,-4.73778
Templeton,50.91667,-3.58333
Temple Sowerby,54.6347,-2.60187
Templepatrick,54.6833300,-6.08333
Templemoyle,55.01667,-7.1833300
Temple Hirst,53.7169205,-1.08536
Temple Guiting,51.951409,-1.86565
Temple Grafton,52.19151,-1.82194000
Temple Ewell,51.15254,1.26926
Templecombe,50.99908,-2.41578
Templeborough,53.4183204,-1.38749
Temple Bar,52.16667,-4.15
Temple Balsall,52.38296,-1.69647000
Temple,55.8,-3.08333
Temple,50.51667,-4.61667
Templand,55.15,-3.43333
Teignmouth,50.545809,-3.49670998
Teigngrace,50.55277,-3.62624
Teffont Magna,51.08965,-2.01694
Teeshan,54.9,-6.3166699
Tedstone Delamere,52.22555,-2.45115
Teddington,52.0,-2.05
Teddington,51.42233,-0.33053
Tedburn Saint Mary,50.73333,-3.68333
Tebworth,51.9304,-0.56099
Tebay,54.43421,-2.59363
Teangue,57.11322,-5.85314
Tayvallich,56.02508,-5.6272699
Tayport,56.44699,-2.87966
Taynuilt,56.42881,-5.23928
Taynton,51.821509,-1.66225998
Taynish,55.9869995,-5.64815
Tayinloan,55.65254,-5.66125
Taxal,53.31479,-1.99214000
Tawstock,51.04972,-4.06307
Tavistock,50.5494400,-4.14418
Tavernspite,51.7819400,-4.64111
Taunton,51.01494,-3.10292997
Tattershall Thorpe,53.1190704,-0.17987
Tattershall,53.1044606,-0.18964
Tattersett,52.8320705,0.74076000
Tatterford,52.8166705,0.76667
Tattenhall,53.1218800,-2.76746
Tatsfield,51.2922,0.0252300000
Tathwell,53.3293300,-0.0180900000
Tatenhill,52.79159,-1.69954
Tassagh,54.26667,-6.6833300
Tarvin,53.197370,-2.76547997
Tarves,57.37079,-2.22195
Tarskavaig,57.11382,-5.98716
Tarring Neville,50.81488,0.0466899995
Tarrant Rushton,50.8515,-2.09001
Tarrant Monkton,50.87921,-2.08068
Tarrant Keynston,50.83333,-2.11667
Tarrant Hinton,50.89745,-2.08854
Tarrant Gunville,50.91468,-2.10692
Tarporley,53.1591800,-2.66867
Tarnbrook,53.995320,-2.63145997
Tarleton,53.68005,-2.82967998
Tarland,57.1279300,-2.8604
Tarfside,56.9,-2.83333
Tardebigge,52.32006,-2.00334
Tarbrax,55.78023,-3.55328000
Tarbolton,55.5129204,-4.48648
Tarbet,56.96983,-5.63436
Tarbet,56.2,-4.71667
Tarbert,57.8982,-6.808
Tarbert,57.05,-6.58333
Tarbert,55.86277,-5.41622
Taplow,51.5329900,-0.68682
Tanygrisiau,52.98705,-3.9574
Tan-y-Bwlch,52.9460000,-4.00211
Tanworth,52.3332900,-1.83618
Tansor,52.50572,-0.448889996
Tansley,53.1319705,-1.51882
Tannington,52.2651605,1.29393999
Tannadice,56.71317,-2.86022
Tankersley,53.49096,-1.48697000
Tangmere,50.85131,-0.71633
Tangley,51.27196,-1.52877
Tanfield,54.8928800,-1.71315998
Tandridge,51.238009,-0.0328699996
Tandragee,54.3548605,-6.4139599
Tamworth,52.6339900,-1.69587
Tamnyrankin,54.9166706,-6.6833300
Tamlaght,54.9,-6.58333
Tamlaght,54.3166705,-7.5666699
Tamerton Foliot,50.42859,-4.15603
Talyllyn,52.66605,-3.91109
Tal-y-Cafn,53.216670,-3.81667
Talybont,52.48333,-3.98333000
Talybont,51.9,-3.28333000
Talsarnau,52.90344,-4.06492
Talsarn,52.18333,-4.13333
Talog,51.90145,-4.42734
Talnotry,55.01667,-4.36667
Talmine,58.52755,-4.43168
Tallington,52.65973,-0.38521
Talley,51.975609,-3.98739
Tallentire,54.7056300,-3.38507
Talland,50.33812,-4.49147
Talisker,57.283330,-6.45
Talgarth,51.99588,-3.23205
Tal-gareg,52.13333,-4.3
Talerddig,52.58823,-3.57895
Talbenny,51.7647200,-5.1325
Talaton,50.78801,-3.3227
Talacre,53.3494205,-3.32474000
Takeley,51.87089,0.26583
Tain,57.81204,-4.05518
Taibach,51.58333,-3.76666995
Taff's Well,51.54278,-3.2725
Tadworth,51.29169,-0.235819997
Tadmarton,52.0384,-1.43062998
Tadley,51.35045,-1.1285
Taddington,53.2371400,-1.78664000
Tadcaster,53.8832204,-1.26344
Tackley,51.88073,-1.30656
Tabley,53.30336,-2.41437
Sywell,52.2985605,-0.79728
Syston,52.9578400,-0.61884
Syston,52.6833300,-1.06667
Syresham,52.0680900,-1.0821
Syre,58.3651,-4.23447
Synod,52.16472,-4.33534
Symington,55.598430,-3.5951
Symington,55.5517604,-4.55835
Sykehouse,53.6447800,-1.04936
Syderstone,52.8598704,0.7187
Sydenham Damerel,50.56203,-4.24811
Sydenham,54.6044400,-5.8799199
Syde,51.79694,-2.0747
Swyre,50.69153,-2.66947
Swynnerton,52.917609,-2.22185
Swordale,58.19525,-6.2656
Swithland,52.713,-1.1867
Swinton,55.716670,-2.26667
Swinton,54.216670,-1.68333
Swinton,53.5,-2.35
Swinton,53.48333,-1.31667
Swinstead,52.79031,-0.49112
Swinhope,53.44719,-0.16844
Swinhoe,55.54895,-1.66872
Swingfield,51.14651,1.18944
Swinford,52.41022,-1.16524
Swiney,58.3,-3.31667
Swineshead,52.94543,-0.15947
Swineshead,52.28029,-0.4501
Swinefleet,53.69086,-0.83492000
Swine,53.8062900,-0.27594
Swindon,51.9236306,-2.09839
Swindon,51.5579700,-1.78115999
Swinderby,53.1572,-0.70216
Swinbrook,51.80729,-1.59399
Swimbridge,51.0528,-3.97073
Swillington,53.76846,-1.4175
Swilland,52.13109,1.19648
Swettenham,53.2015205,-2.29929
Swerford,51.97695,-1.46024
Swaythling,50.9366606,-1.37814
Swayfield,52.7937300,-0.53128999
Sway,50.78685,-1.60294
Swavesey,52.30155,-0.00476
Swatragh,54.9,-6.66667
Swaton,52.9236,-0.31629
Swarland,55.324030,-1.74480998
Swarkestone,52.8541,-1.45427000
Swardeston,52.5762800,1.24783
Swarby,52.9525704,-0.4434
Swanwick,53.0666705,-1.4
Swan Village,52.533330,-2.01667
Swanton Abbot,52.783330,1.36667
Swansea,51.62079,-3.94323000
Swanscombe,51.44713,0.31028
Swannington,52.73333,-1.35
Swannington,52.72883,1.15846
Swanmore,50.94404,-1.18021
Swanley,51.39717,0.17321
Swanland,53.737330,-0.49167
Swanibost,58.466670,-6.26666995
Swanbourne,51.938186,-0.83625
Swanage,50.6082700,-1.95664000
Swalwell,54.9532706,-1.68157
Swallownest,53.3639705,-1.31457999
Swallowfield,51.37875,-0.95804
Swallow,53.51079,-0.22705
Swalecliffe,51.36117,1.06592998
Swalcliffe,52.03783,-1.44957
Upper Swainswick,51.41393,-2.35095997
Swainsthorpe,52.5620605,1.2727
Swainby,54.41264,-1.26668999
Swafield,52.8386800,1.39385
Swaffham Prior,52.2538900,0.296330000
Swaffham Bulbeck,52.238209999999995,0.27698
Swaffham,52.6477,0.6857
Swadlincote,52.7739994,-1.55744
Sutton Wick,51.63754,-1.28866000
Sutton Valence,51.2132306,0.59107
Sutton upon Derwent,53.9131400,-0.92465
Sutton under Brailes,52.03217,-1.56246
Sutton Scotney,51.1541,-1.33673
Sutton Saint James,52.74419,0.06472
Sutton on Trent,53.1843704,-0.81091
Sutton on the Hill,52.8995300,-1.65267
Sutton on the Forest,54.07515,-1.10284
Sutton on Sea,53.3128,0.28201
Sutton on Hull,53.77986,-0.305040000
Sutton Montis,51.01638,-2.54119000
Sutton Mallet,51.12833,-2.89722
Sutton Maddock,52.60997,-2.4104
Sutton-in-Craven,53.883330,-1.98333
Sutton in Ashfield,53.12542,-1.26135
Sutton Courtenay,51.6413,-1.27682
Sutton Coldfield,52.5666705,-1.81667
Sutton Bridge,52.76995,0.1855
Sutton Bonington,52.82144,-1.24969
Sutton Bingham,50.8982,-2.64595
Sutton Benger,51.50685,-2.08015
Sutton at Hone,51.40906,0.237409998
Sutton,54.23333,-1.25
Sutton,53.6,-1.16667
Sutton-cum-Lound,53.35475,-0.97847999
Sutton,53.26667,-2.93332998
Sutton,52.75915,1.53722999
Sutton,52.57666,-0.38199
Sutton,52.3880400,0.118659999
Sutton,52.1,-2.68332998
Sutton,52.11078,-0.2138
Sutton,52.06667,1.35
Sutton,51.57216,0.72183999
Sutton,51.35,-0.2
Sutterton,52.90269,-0.09235
Sutcombe,50.88097,-4.35192
Surfleet,52.8369996,-0.14437
Sunningwell,51.70187,-1.2824
Sunninghill,51.40135,-0.65557
Sunningdale,51.39878,-0.62944
Sunk Island,53.6516800,-0.08407
Sunipol,56.60344,-6.2857699
Sundridge,51.27797,0.122309999
Sundon Park,51.91817,-0.46985
Sunderland Bridge,54.73333,-1.58333
Sunderland,54.90465,-1.38222
Sunderland,54.7,-3.26667
Sunbury Common,51.42212,-0.44014
Sunbury-on-Thames,51.40424,-0.41817
Sunadale,55.6478,-5.47858
Summertown,51.7740306,-1.26369
Summer Bridge,54.05,-1.7
Sumburgh,59.86916,-1.28781000
Sully,51.407,-3.22086
Sulhamstead Abbots,51.4,-1.06667
Sulhamstead,51.4138,-1.09284
Sulgrave,52.10391,-1.18712000
Suie,56.4166706,-4.45
Sugnall,52.875580,-2.30105997
Sudbury,52.8850606,-1.76392000
Sudbury,52.0389,0.73117
Sudbury,51.55525,-0.323580000
Sudbrooke,53.26667,-0.45
Sudbourne,52.1228400,1.52358
Sudborough,52.42825,-0.57938
Suckley,52.159285,-2.40561
Styrrup,53.408870,-1.08918999
Stutton,51.97039,1.13176
Stuston,52.36105,1.13227
Sturton le Steeple,53.3496800,-0.82053999
Sturton,53.3,-0.65
Sturry,51.3013200,1.12155
Sturminster Newton,50.926809,-2.30515
Sturminster Marshall,50.79968,-2.07615
Sturmer,52.06785,0.4755
Sturgate,53.391880,-0.67914
Stuntney,52.3807200,0.28395
Studley Roger,54.1265400,-1.55705
Studley,52.27026,-1.89188
Studley,51.8,-1.13333
Studley,51.44222,-2.04972
Studland,50.64203,-1.95252
Studham,51.83128,-0.51683
Studdon,54.866670,-2.25
Stubton,53.03004,-0.69994
Stubbins,53.65,-2.31667000
Stuartfield,57.50303,-2.04637
Struy,57.4224,-4.66576
Struell,54.32391,-5.67693000
Strubby,53.3,0.18333
Struan,57.35496,-6.41911
Struan,56.75,-3.91667
Stroud,51.75,-2.2
Strood,51.3932306,0.47713
Strontian,56.69576,-5.57019
Stronmilchan,56.41352,-4.99599
Stron-fearnan,56.5666705,-4.0666699
Strone,55.98585,-4.90624
Stronachlachar,56.2573705,-4.5796199
Stromness,58.9649800,-3.29601
Stromeferry,57.35239,-5.55211995
Strollamus,57.26667,-5.96667
Strixton,52.24672,-0.68214
Strines,53.377080,-2.04457
Strichen,57.586630,-2.09064
Stretton under Fosse,52.4288300,-1.33784
Stretton on Fosse,52.04374,-1.67825
Stretton,53.3333300,-2.56667000
Stretton,53.133330,-1.41667
Stretton,52.7,-2.16667
Stretham,52.34709,0.21852
Strethall,52.03333,0.16667
Stretford,53.45,-2.31667000
Stretford,52.2,-2.81667000
Strete,50.31138,-3.63055
Strensham,52.05919,-2.1439
Strensall,54.03999,-1.03512
Streetly,52.5833300,-1.88333
Street,51.12472,-2.74
Streatley,51.94628,-0.443739997
Streatley,51.52316,-1.1491
Streatham,51.42897,-0.13184
Strawberry Hill,51.43991,-0.34195
Stratton Saint Margaret,51.58333,-1.75
Stratton-on-the-Fosse,51.25333,-2.49222
Stratton Audley,51.93059,-1.11722
Stratton,50.83333,-4.51666995
Stratton,50.73333,-2.5
Strathyre,56.325080,-4.32878
Strathy,58.5621,-4.01318
Strathpeffer,57.585220,-4.54195
Strathmiglo,56.27755,-3.2713
Strathkinness,56.33514,-2.87570998
Strath,57.7342705,-5.70351
Strathdon,57.1999,-3.07102
Strathcarron,57.422570,-5.42978
Strathblane,55.98596,-4.30658
Strathaven,55.6771,-4.0668
Strathan,55.966670,-5.33333
Stratford-upon-Avon,52.19166,-1.70734
Stratford,51.53333,0.0
Stratfield Saye,51.34981,-1.02017999
Stratfield Mortimer,51.37339,-1.03495
Strata Florida,52.27475,-3.83906995
Stranraer,54.90234,-5.02731
Stranocum,55.1,-6.41667
Stranmillis,54.5666705,-5.91667
Strangford,54.36956,-5.55711
Stranagalwilly,54.85,-7.16667
Stralongford,54.48333,-7.5666699
Straloch,56.75688,-3.56453000
Straiton,55.3,-4.55
Straid,55.1833300,-6.4
Straid,54.7550706,-5.92295
Stradsett,52.6178,0.45816
Stradishall,52.14508,0.55507
Stradbroke,52.31819,1.27278
Strachur,56.1693400,-5.06458
Strachan,57.02004,-2.54291
Stracathro,56.77757,-2.61525
Strabane,54.8237300,-7.46916000
Stowting,51.13581,1.03616
Stow on the Wold,51.93008,-1.72382000
Stowmarket,52.18893,0.99774
Stowford,50.65,-4.21667
Stowey,51.33664,-2.57936
Stowell,51.00056,-2.45389000
Stowe,52.8333300,-2.0
Stow cum Quy,52.22317,0.225219998
Stowbridge,52.63678,0.37773
Stow Bedon,52.527809999999995,0.88122000
Stow,55.6935704,-2.86414000
Stow,53.3274,-0.67575
Stow,52.35,-3.01667
Stourton Caundle,50.93339,-2.40711
Stourton,51.105,-2.31556
Stour Provost,50.9925400,-2.29267
Stourport-on-Severn,52.33976,-2.28034000
Stourpaine,50.8846400,-2.19797
Stourbridge,52.456080,-2.14317
Stoupe Brow,54.4,-0.53333
Stoul,56.9859,-5.69741
Stoughton,51.25407,-0.59592
Stoughton,50.89605,-0.86114
Stottesdon,52.44101,-2.48385
Stotfold,52.01632,-0.232090000
Stotfield,57.7,-3.28333000
Storrington,50.91765,-0.45473
Stornoway,58.20925,-6.38649
Stopsley,51.89736,-0.389240000
Stopham,50.96054,-0.5409
Stoodleigh,50.9588,-3.53626996
Stony Stratford,52.05682,-0.85281000
Stoney Middleton,53.27525,-1.65555
Stonyford,54.5666705,-6.11667
Stony Cross,50.9,-1.63333
Stonnall,52.63326,-1.89439000
Stonham Aspal,52.19104,1.12258
Stoneywood,57.1833300,-2.16667
Stoney Stanton,52.5483900,-1.2793
Stoneykirk,54.8358,-4.97904
Stone,51.45032,0.2647
Stonesfield,51.8514200,-1.4296
Stonesby,52.81345,-0.7802
Stoneleigh,52.35,-1.51667
Stonehouse,55.69435,-3.9878
Stonehouse,51.75,-2.28333
Stonehaven,56.96365,-2.21177
Stonegrave,54.19149,-0.99382
Stonefort,54.5,-7.9
Stonefield,55.88975,-5.4188300
Stone,52.9059,-2.15409
Stone,52.36667,-2.2
Stone,51.8024606,-0.87032000
Stone,51.65583,-2.45694000
Stone,51.0,0.76667
Stondon,52.0015,-0.31933
Stolford,51.19942,-3.10672998
Stoke upon Tern,52.85,-2.53333
Stokesley,54.469980,-1.1933
Stokesby,52.63887,1.59179
Stokesay,52.42828,-2.82997
Stoke Saint Milborough,52.4333300,-2.63333
Stoke Saint Gregory,51.040286,-2.93111
Stoke Rivers,51.10167,-3.95252
Stoke Prior,52.29978,-2.08034
Stoke Prior,52.2,-2.7
Stoke Poges,51.54441,-0.5888
Stoke-on-Trent,53.00415,-2.18538
Stokenham,50.27448,-3.67493000
Stoke Newington,51.5624604,-0.07401
Stokenchurch,51.65831,-0.8974
Stoke Mandeville,51.78606,-0.79157
Stoke Lyne,51.95115,-1.1764
Stoke Lacy,52.14954,-2.55089000
Stokeinteignhead,50.5243,-3.53045
Stoke Holy Cross,52.5703,1.29484
Stoke Hammond,51.95675,-0.71900000
Stokeham,53.28315,-0.82555
Stoke Goldington,52.13133,-0.77813999
Stoke Golding,52.5706,-1.41124
Stoke Gifford,51.51686,-2.54053
Stoke Gabriel,50.40328,-3.62111
Stoke Fleming,50.32508,-3.59862
Stoke Ferry,52.57051,0.5132
Stoke Edith,52.06275,-2.58016
Stoke Doyle,52.46496,-0.493689996
Stoke D'Abernon,51.31924,-0.38538
Stoke Climsland,50.5473400,-4.31678000
Stoke Canon,50.77146,-3.50773000
Stoke-by-Nayland,51.99047,0.89086
Stoke by Clare,52.06241,0.53833
Stoke Bliss,52.26355,-2.50356
Stoke Albany,52.4817900,-0.8129
Stoke Abbott,50.80364,-2.77765
Stoke,53.25,-2.86667
Upper Stoke,51.44679,0.61824
Stogursey,51.17972,-3.14194
Stogumber,51.1277200,-3.29145
Stoer,58.2024,-5.33827
Stockton on Teme,52.3038,-2.41837
Stockton-on-Tees,54.568480,-1.3187
Stockton,52.48333,1.51667
Stockton,52.271809999999995,-1.36055
Stockton,52.25,-2.7
Stocksfield,54.9402605,-1.90398
Stocksbridge,53.4824900,-1.59372999
Stockport,53.40979,-2.15761
Stocklinch,50.95125,-2.88052
Stockleigh Pomeroy,50.8206400,-3.59719000
Stockleigh English,50.8452,-3.63539
Stockland,50.8368,-3.07342
Stocking Pelham,51.94149,0.111709999
Stockingford,52.51667,-1.5
Stockerston,52.569080,-0.7665
Stockcross,51.4143,-1.37578
Stockbury,51.32543,0.64018999
Stockbriggs,55.6,-3.91667
Stockbridge,51.11398,-1.48838999
Stock,51.663509999999995,0.44263
Stoborough,50.67514,-2.11069
Stobo,55.62555,-3.29743000
Stixwould,53.17734,-0.243819998
Stivichall,52.38503,-1.5132
Stittenham,57.75,-4.26666995
Stithians,50.1887,-5.17807
Stisted,51.89199,0.61459
Stirling,56.11903,-3.93681995
Stilton,52.4878800,-0.288940000
Stillington,54.6052900,-1.42191
Stillington,54.1028,-1.10919
Stillingfleet,53.8606,-1.09827
Stifford,51.48333,0.31667
Stiffkey,52.9491,0.93281
Stickney,53.0894900,0.00545
Sticklepath,50.73333,-3.93333
Stickford,53.1196900,0.02912
Stichill,55.63757,-2.45985
Stibbard,52.8154206,0.93922999
Steyning,50.8874400,-0.32787
Stewkley,51.9274400,-0.76381
Stewartstown,54.57734,-6.6767699
Stewarton,55.67986,-4.51435
Stewartfield,56.6,-3.68333
Stevington,52.168485,-0.55515
Steventon,51.62473,-1.32145
Steventon,51.22995,-1.21807
Stevenston,55.6397,-4.75339000
Stevenage,51.90224,-0.20256
Stetchworth,52.2,0.4
Steart,51.20694,-3.04472
Stepps,55.88899,-4.1521
Steppingley,52.00758,-0.52855
Stepney,51.5175,-0.04292
Stepaside,51.7348400,-4.69367
Stenton,55.95,-2.6
Stenscholl,57.633330,-6.23333000
Stenigot,53.311630,-0.11342
Stelling,51.18333,1.06667
Stein,57.51667,-6.5666699
Steeton,53.883330,-1.95
Steeple Morden,52.06648,-0.1248
Steeple Langford,51.13649,-1.94807
Steeple Claydon,51.93643,-0.98327999
Steeple Bumpstead,52.0434606,0.448080000
Steeple Aston,51.92749,-1.31106000
Steeple Ashton,51.31033,-2.13538
Steeple,51.69278,0.802
Steep,51.02277,-0.94212000
Steens Bridge,52.21667,-2.66667
Stedham,50.99447,-0.77118999
Stechford,52.48464,-1.81
Stebbligrind,60.2,-1.3
Stebbing,51.89111,0.41422
Staythorpe,53.076870,-0.87575
Staylittle,52.51667,-3.65
Staxigoe,58.45415,-3.05878
Stawley,50.9958,-3.33725997
Stawell,51.14033,-2.90521
Staverton,52.24491,-1.21043
Staverton,51.91134,-2.16062
Staverton,50.46667,-3.7
Staveley,54.37661,-2.81791
Staveley,54.05,-1.45
Staveley,53.26667,-1.35
Staunton on Wye,52.10207,-2.92074000
Staunton in the Vale,52.9843900,-0.80109
Staunton,52.23333,-2.93332998
Staunton,51.96667,-2.31667000
Staunton,51.81667,-2.65
Stathern,52.87203,-0.85522000
Startforth,54.538509999999995,-1.93015999
Starcross,50.6273400,-3.44796998
Starbotton,54.1690206,-2.07264000
Starbeck,53.99944,-1.49899
Stapleton,52.633330,-2.78333
Stapleton,51.4848,-2.55291
Staplehurst,51.1611,0.55248999
Staple Hill,51.4830605,-2.50333
Stapleford Tawney,51.66667,0.16667
Stapleford Abbots,51.6315,0.17501
Stapleford,53.1,-0.68333
Stapleford,52.9166706,-1.26667
Stapleford,52.75541,-0.79943
Stapleford,51.83641,-0.103340000
Stapleford,51.11667,-1.9
Staple Fitzpaine,50.95961,-3.04942
Staplefield,51.03805,-0.18145
Staplecross,50.97356,0.53576
Staple,51.26299,1.25476
Stanwix,54.90569,-2.94134000
Stanwick,52.33198,-0.56348
Stanwell,51.45414,-0.47812
Stanway,51.98333,-1.91667
Stanton upon Hine Heath,52.81174,-2.64077000
Stanton St Quintin,51.51778,-2.13528
Stanton Saint John,51.7796,-1.16304
Stanton Long,52.5118800,-2.63105
Stanton Lacy,52.40483,-2.74255997
Stanton in Peak,53.17487,-1.63954000
Stanton Harcourt,51.7491900,-1.40178999
Stanton Gate,52.95,-1.28332999
Stanton Fitzwarren,51.6119995,-1.74455
Stanton by Dale,52.937320,-1.30931
Stanton,53.0,-1.81667
Stanton,52.32325,0.88354
Stanton,52.00626,-1.90094
Stansted Mountfitchet,51.9,0.2
Stansted,51.33587,0.3059
Stanstead Abbotts,51.78642,0.01175
Stanstead,52.11101,0.69235
Stannington,55.1086205,-1.66855
Stannington,53.39305,-1.54521
Stanningley,53.806680,-1.66709000
Stanningfield,52.17537,0.75336
Stanmore,51.61667,-0.31667
Stanmer,50.87065,-0.10265
Stanlow,52.5833300,-2.3
Stanley,56.4854,-3.45184000
Stanley,53.7139,-1.47582000
Stanley,52.95867,-1.37956000
Stanion,52.4748204,-0.65549
Stanhope,54.75,-2.01667
Stanhoe,52.9008900,0.68398
Stanground,52.5543606,-0.2211
Stanford Rivers,51.6851900,0.21735
Stanford on Teme,52.29016,-2.43627
Stanford on Soar,52.79186,-1.19596000
Stanford on Avon,52.4,-1.13333
Stanford-le-Hope,51.52274,0.43422
Stanford in the Vale,51.63969,-1.50652
Stanford Bishop,52.1654400,-2.45502
Stanford,52.51667,0.73333
Stanford,51.10228,1.03983999
Standon,52.9166706,-2.28333
Standon,51.8838306,0.0246300000
Standlake,51.7269,-1.42436
Standish,53.5833300,-2.66667
Standish,51.76667,-2.28333
Stanbridge,51.9086400,-0.59815
Stamfordham,55.04335,-1.87978
Stamford Bridge,53.9885,-0.91547000
Stamford Bridge,53.2,-2.8
Stamford,52.65,-0.483330000
Stambourne,52.02057,0.50791999
Stalybridge,53.4841400,-2.05908
Stallingborough,53.58675,-0.18489
Stalisfield,51.24263,0.80956000
Stalham,52.7707900,1.51783
Stalbridge,50.95807,-2.37548
West Hagley,52.41667,-2.15
Staithes,54.55904,-0.79258000
Stair,55.4782705,-4.47337
Stainton le Vale,53.43249,-0.23404
Staintondale,54.371330,-0.47805
Stainton,54.52004,-1.25682
Stainton,54.3651606,-1.83884000
Stainton,53.4333300,-1.16667
Stainsacre,54.4626800,-0.59223
Stainland,53.6706800,-1.88432
Stainforth,54.10103,-2.27510997
Stainforth,53.6,-1.03332999
Stainfield,53.23333,-0.35
Staines,51.43092,-0.50606000
Staindrop,54.5810205,-1.80708
Staincross,53.594130,-1.5115
Stainby,52.7966400,-0.65216000
Stainburn,53.9333300,-1.61667
Stainborough,53.5262300,-1.518
Stagshaw Bank,55.01667,-2.01667
Stagsden,52.13046,-0.56678000
Staffordstown,54.716670,-6.38333
Stafford,52.805209999999995,-2.11636
Staffin,57.6240800,-6.20659
Stadhampton,51.681309,-1.13137998
Staddlethorpe,53.7438800,-0.73243
Stackpole,51.62982,-4.9149699
Square,54.216670,-6.03333
Spurstow,53.1079800,-2.6632
Sprucefield,54.480509999999995,-6.0454
Sproxton,52.81041,-0.73488
Sprowston,52.65,1.33333
Sprouston,55.6079800,-2.39093
Sproughton,52.0623306,1.09499
Sprotbrough,53.513880,-1.1885
Sproatley,53.79379,-0.1913
Springthorpe,53.39674,-0.68443
Springside,55.6151400,-4.59061995
Springmount,54.95,-6.3166699
Springholm,55.0101800,-3.86861
Springfield,56.29509,-3.0612
Springfield,54.6,-5.96667
Springfield,53.633330,-2.66667
Springburn,55.89015,-4.23324
Spridlington,53.3483300,-0.48694
Spreyton,50.75553,-3.84504
Spratton,52.32447,-0.95386
Spott,55.970830,-2.52644
Sporle,52.66573,0.73226
Spooner Row,52.53379,1.08952999
Spon End,52.40834,-1.52696
Spondon,52.918430,-1.40385
Spofforth,53.9542704,-1.44848
Splot,51.48333,-3.13333
Spixworth,52.68529,1.32027
Spittal of Glenshee,56.8116900,-3.4631
Spittal,55.7582800,-1.99427998
Spittal,51.86889,-4.9425
Spital in the Street,53.39826,-0.54789
Spitalfields,51.5202,-0.07436
Spinningdale,57.87786,-4.23485
Spilsby,53.17363,0.09373
Spexhall,52.36837,1.4926
Spetisbury,50.82054,-2.12515997
Spetchley,52.18379,-2.15367
Spennymoor,54.6988,-1.60229
Spennithorne,54.29716,-1.79193
Spelsbury,51.89223,-1.49353999
Speldhurst,51.15076,0.219469997
Speke,53.340709999999994,-2.841
Speeton,54.15575,-0.242209998
Speen,51.41206,-1.34381
Spean Bridge,56.8915704,-4.91982
Spaxton,51.12523,-3.10724
Sparsholt,51.07786,-1.37913
Sparkford,51.03528,-2.55972
Sparham,52.73486,1.06725
Spanby,52.92926,-0.37424
Spaldwick,52.34179,-0.34435
Spaldington,53.7927300,-0.84898999
Spalding,52.78709,-0.15141
Sowerby Bridge,53.7090300,-1.90929000
South Zeal,50.7260400,-3.91276996
South Wraxall,51.3818200,-2.24235997
South Wootton,52.77403,0.43775
Southwold,52.32721,1.68017000
South Witham,52.7647605,-0.62811000
South Wingfield,53.09593,-1.43998
South Willingham,53.33421,-0.20801
South Widcombe,51.3075,-2.6025
Southwick,54.9186606,-1.40196
Southwick,51.29694,-2.2325
Southwick,50.87412,-1.11185
Southwick,50.83684,-0.23844
South Wheatley,53.35,-0.85
Southwell,53.07804,-0.95537999
Southwell,50.53333,-2.43332998
Southwater,51.02369,-0.351730000
Southwark,51.5,-0.08333
South Walsham,52.6648,1.49732
Southwaite,54.79841,-2.85996
South Tullich,56.283330,-5.1
Southtown,52.6,1.73333
Tidworth,51.23142,-1.66324
South Thoresby,53.27126,0.09845
South Tawton,50.7338,-3.90976995
South Stoneham,50.93333,-1.36667
South Stoke,52.8333300,-0.58333
South Stoke,51.54954,-1.13228
South Stainley,54.0646606,-1.53579
South Somercotes,53.42253,0.12987
South Shields,54.99859,-1.4323
Southsea,50.79205,-1.08592998
South Scarle,53.16659,-0.73608000
Southrop,51.72995,-1.71196
Southrey,53.18415,-0.29802
South Reston,53.3274605,0.104720000
South Raynham,52.7789704,0.78491
Southport,53.64581,-3.01008
South Pool,50.24942,-3.7186
South Pickenham,52.604180,0.7411
South Petherwin,50.61137,-4.39012
South Petherton,50.94829,-2.80708
South Perrott,50.85818,-2.75127
Southowram,53.7098800,-1.83181
South Otterington,54.2821,-1.4269
Southorpe,52.61055,-0.40512
Southoe,52.26548,-0.26745
South Ockendon,51.50799,0.28333
South Nutfield,51.01667,-0.13333
South Norwood,51.3994400,-0.074689999
South Normanton,53.10637,-1.34262000
South Newton,51.10653,-1.87527998
South Newington,51.99535,-1.40865
South Newbald,53.81211,-0.60305
South Muskham,53.1069,-0.82119
South Mundham,50.79574,-0.75548
South Moreton,51.58899,-1.19056
South Moor,54.85,-1.7
South Molton,51.01667,-3.83333
Southminster,51.662286,0.82968
South Mimms,51.6958606,-0.232730000
South Milton,50.2702,-3.82556
South Milford,53.77672,-1.24609
South Marston,51.58918,-1.71939000
South Luffenham,52.608570,-0.61232
South Lopham,52.39289,0.99976
South Littleton,52.11416,-1.89014000
South Leverton,53.31969,-0.82568999
South Leigh,51.77578,-1.43354
Southleigh,50.73333,-3.13333
South Lancing,50.82405,-0.32315
South Kyme,53.031920,-0.25131
South Kilvington,54.24938,-1.34817
South Killingholme,53.5666705,-0.23333
South Kessock,57.4930800,-4.24
South Kensington,51.49437,-0.17321
South Kelsey,53.47025,-0.43099
Southill,52.06431,-0.323580000
South Hykeham,53.17009,-0.60147
South Hinksey,51.73405,-1.26369
South Hill,50.53333,-4.35
South Hetton,54.79906,-1.40671000
South Hayling,50.7877306,-0.97697000
South Harting,50.96924,-0.88387999
South Hanningfield,51.65014,0.51686999
Southgate,51.61667,-0.1
Southfleet,51.41628,0.32032
South Ferriby,53.6760300,-0.50474
South Fawley,51.5188400,-1.43878
Southery,52.52714,0.38783
South Erradale,57.6766704,-5.78368
Southerndown,51.45278,-3.61166997
Southend-on-Sea,51.53782,0.71433
Southend,55.3166705,-5.63333
South Elmsall,53.59709,-1.28034
South Elkington,53.37701,-0.0525799995
South Dell,58.466670,-6.3
Southdean,55.366670,-2.58333
South Dalton,53.8955,-0.5301
South Crossaig,55.7,-5.45
South Crosland,53.608120,-1.82742
South Creake,52.8849300,0.76547
South Cowton,54.41254,-1.5713
South Cove,52.37057,1.66683
South Cornelly,51.51113,-3.70351997
South Collingham,53.133330,-0.76667
South Cockerington,53.38176,0.075970000
South Cobbinshaw,55.8,-3.75
South Clifton,53.22217,-0.76965
South Cheriton,51.01972,-2.43889000
South Charlton,55.4758,-1.74210998
South Cerney,51.6731900,-1.93097
South Cave,53.76987,-0.60107
South Carlton,53.26667,-0.58333
South Cadbury,51.02867,-2.52556
Southburn,53.97616,-0.49272
Southburgh,52.60406,0.94516
South Brewham,51.1230605,-2.40167
South Brent,50.42654,-3.83426
Southbourne,50.85305,-0.90766
Southbourne,50.72211,-1.78425
Southborough,51.16035,0.25732
South Benfleet,51.55295,0.55962
South Beach,52.88233,-4.41385
South Barrow,51.04833,-2.57056
South Bank,54.5666705,-1.15
Southampton,50.90395,-1.40428
Southam,52.25266,-1.3884
Southam,51.92924,-2.04028
Southall,51.5089605,-0.3713
South Acre,52.6833300,0.68333
Soutergate,54.22291,-3.18595997
Sourton,50.6942,-4.07587
Sourlies,57.0,-5.5
Souldrop,52.24483,-0.55747
Souldern,51.9796200,-1.2406
Soulby,54.491180,-2.38764
Soulbury,51.93577,-0.71804
Sotwell,51.61578,-1.15932000
Sotterley,52.40634,1.60263
Sotherton,52.358786,1.58392
Sotby,53.293409999999994,-0.19316
Sorn,55.51039,-4.28881
Sorisdale,56.6817400,-6.45653
Sorbie,54.791909999999994,-4.43377
Sopworth,51.57442,-2.25119000
Sopley,50.77278,-1.77990999
Sookholme,53.1833300,-1.18333
Sonning,51.474109,-0.91212
Sompting,50.83462,-0.34238
West Somerton,52.72035,1.65297
Somerton,51.954209,-1.27613
Somerton,51.05472,-2.73389
Somersham,52.38333,0.0
Somersham,52.0960700,1.05022000
Somersby,53.2343,0.01202
Somersal Herbert,52.9139900,-1.79655
Somerleyton,52.515020,1.65267
Somerford Keynes,51.6549606,-1.97307
Somerby,53.5455900,-0.399109996
Somerby,52.68741,-0.85007000
Solva,51.87404,-5.19683
Sollom,53.66265,-2.82609
Sollas,57.65,-7.35
Solihull,52.41426,-1.78094000
Sole Street,51.38555,0.378430000
Soham,52.33543,0.33654
Soberton,50.93634,-1.13366000
Snowshill,52.002109999999995,-1.8607
Snodland,51.32971,0.44305
Snitterfield,52.23705,-1.69069000
Snitterby,53.43962,-0.51968
Snitter,55.32484,-1.96230998
Snettisham,52.87882,0.50098999
Snetterton,52.47583,0.92912000
Snelston,52.98791,-1.77531
Snelland,53.3100300,-0.39135
Sneinton,52.95159,-1.1315
Sneaton,54.4232,-0.62416
Snead,52.523109,-3.00822997
Snave,51.03352,0.86964
Snargate,51.0222900,0.83651000
Snarestone,52.68045,-1.49478
Snaresbrook,51.58432,0.01923
Snape,52.17096,1.50047
Snaith,53.69112,-1.02859
Snainton,54.22758,-0.58659
Snailwell,52.28092,0.40898
Smithy Bridge,53.633,-2.11375996
Smisby,52.7682400,-1.48427
Smethwick,52.492680,-1.96745
Smeeth,51.11861,0.95932999
Smeafield,55.63224,-1.85401
Smarden,51.1492,0.68742
Smardale,54.46585,-2.40309
Small Heath,52.4681400,-1.85432
Smalley,52.9985400,-1.39462
Smallburgh,52.76876,1.45088
Smailholm,55.6197204,-2.56031
Slough,51.50949,-0.59541
Slioch,57.4166706,-2.73333
Slingsby,54.16429,-0.93443999
Slinfold,51.07209,-0.40658
Slindon,52.883330,-2.26667
Slindon,50.86627,-0.63291999
Slimbridge,51.73104,-2.37888
Sliddery,55.4555704,-5.27278
Slickly,58.5833300,-3.2
Sleights,54.4550606,-0.66484
Sleightholme,54.48333,-2.06667000
Sledmere,54.07135,-0.5766
Sleaford,52.9982605,-0.40941
Slawston,52.54245,-0.85362
Slaughterford,51.46411,-2.23170996
Slaugham,51.03859,-0.207709998
Slateford,55.92805,-3.24346
Slapton,52.11607,-1.06485
Slapton,51.87784,-0.64412
Slapton,50.29268,-3.65646997
Slamannan,55.9372900,-3.83311
Slaley,54.913680,-2.03710998
Slaithwaite,53.6232605,-1.88380998
Slaidburn,53.96618,-2.4383
Slaggyford,54.8663205,-2.50369
Slaggan,57.883330,-5.63333
Slade Green,51.4672200,0.1911
Skye of Curr,57.3,-3.66667
Skullomie,58.5158,-4.37429
Skudiburgh,57.58622,-6.37751
Skirwith,54.68505,-2.59397997
Skirpenbeck,54.00385,-0.86212000
Skirling,55.6359400,-3.46806995
Skirbeck Quarter,52.95,-0.0166699997
Skirbeck,52.966670,0.0
Skipwith,53.83825,-0.99257999
Skipton,53.96144,-2.01675997
Skipsea,53.97674,-0.22084
Skipness,55.76653,-5.3472300
Skinningrove,54.569080,-0.89869
Skinidin,57.4380300,-6.63413995
Skinburness,54.89043,-3.36525
Skillington,52.8224800,-0.67085
Skilgate,51.03629,-3.44508000
Skidby,53.78921,-0.461310000
Skewen,51.66035,-3.84994
Skerries,54.26667,-6.83333
Skerne,53.9836300,-0.40688
Skenfrith,51.87786,-2.79
Skendleby,53.2050400,0.1453
Skelton,54.71114,-2.87996
Skelton,54.560620,-0.98825
Skelton,54.0,-1.13333
Skelton,53.72521,-0.84187000
Skelsmergh,54.3333300,-2.7
Skelmorlie,55.8695,-4.88475
Skelmersdale,53.55024,-2.77347997
Skelmanthorpe,53.590570,-1.65173
Skellow,53.58741,-1.20557999
Skellingthorpe,53.23531,-0.61905
Skelbo,57.92725,-4.04271
Skegoniel,54.616670,-5.9333300
Skegness,53.14362,0.3363
Skigersta,58.47341,-6.21135
Skegby,53.133330,-1.25
Skeffling,53.6535800,0.07384
Skeffington,52.617680,-0.90213999
Skeabost,57.45,-6.3166699
Skateraw,57.033330,-2.15
Skateraw,55.966670,-2.41667
Skaill,58.5833300,-3.68333
Skail,58.383330,-4.2
Sizewell,52.21405,1.61794
The Six Towns,54.75,-6.86667
Six Road Ends,54.6288400,-5.63221
Sixmilecross,54.5565400,-7.11837
Six Mile Bottom,52.1881900,0.30672
Sixhills,53.366670,-0.23333
Sittingbourne,51.34128,0.73282
Siston,51.47444,-2.45
Sissinghurst,51.10905,0.56
Sirhowy,51.78378,-3.23857
Sion Mills,54.7875204,-7.4727600
Sinnington,54.2621900,-0.85837999
Singleton,50.91158,-0.75376999
Sinderby,54.2319205,-1.47209
Sinclairtown,56.1261705,-3.14000997
Simpson,52.01667,-0.7
Simonsbath,51.13961,-3.75441996
Simonburn,55.05744,-2.20301
Silvington,52.41667,-2.56667000
Silvertown,51.50343,0.03669
Silverton,50.81667,-3.48333000
Silverstone,52.09216,-1.02602000
Silverdale,54.1666706,-2.81667000
Silverdale,53.01667,-2.28333
Silton,51.06222,-2.31305997
Silsoe,52.00854,-0.424839994
Silsden,53.91443,-1.93802
Silloth,54.8687,-3.38448000
Silk Willoughby,52.972780,-0.428469996
Silksworth,54.87021,-1.4211
Silkstone,53.5480800,-1.56381000
Silian,52.14079,-4.09176995
Silecroft,54.2256,-3.33461
Sileby,52.7328605,-1.10772999
Silchester,51.3535605,-1.10061
Sighthill,55.9226300,-3.2853
Sigglesthorne,53.89833,-0.243780000
Sidmouth,50.6909400,-3.2397
Sidley,50.85735,0.46784
Sidlesham,50.77383,-0.78638
Sidestrand,52.9073400,1.3583
Siddington,53.23333,-2.23333
Siddington,51.68333,-1.95
Siddick,54.66477,-3.55096995
Sidcup,51.4261900,0.1036
Sidcot,51.31388,-2.82262998
Sidbury,50.71953,-3.22028
Sicklinghall,53.9306,-1.45059
Sibton,52.2750400,1.45741
Sibson,52.604920,-1.47843
Sibsey,53.03858,0.0157900000
Sible Hedingham,51.97772,0.59262
Sibdon Carwood,52.443030,-2.86615
Sibbertoft,52.437320,-0.99941
Shuttington,52.645820,-1.62804
Shute,50.76667,-3.06667000
Shustoke,52.51319,-1.66237000
Shurdington,51.86264,-2.1206
Shugborough,52.8,-2.01667
Shudy Camps,52.07502,0.36332
Shropham,52.5001,0.92402999
Shrivenham,51.59853,-1.65461
Shrewton,51.19194,-1.90264
Shrewsbury,52.71009,-2.75208
Shrewley,52.30296,-1.68861
Shrawley,52.2840400,-2.29152000
Shrawardine,52.732,-2.89040997
Shouldham Thorpe,52.64306,0.458339997
Shouldham,52.65254,0.47494
Shotwick,53.2393800,-2.99056
Shotton,54.783330,-1.36667
Shottisham,52.0515900,1.38282000
Shotteswell,52.1064306,-1.3793
Shottery,52.18333,-1.71667000
Shottermill,51.08676,-0.73643
Shotley Gate,51.95789,1.26877000
Shotley Bridge,54.8713,-1.85075
Shotley,51.9695,1.25047
Shotesham Saint Mary,52.533330,1.3
Shotesham All Saints,52.533330,1.31667
Shorwell,50.64448,-1.35487999
Shorne,51.41363,0.43044
Shorncliffe Camp,51.08333,1.15
Shoreham-by-Sea,50.83413,-0.27431
Shoreham,51.3334,0.17801
Shoreditch,51.5250900,-0.07695
Shopford,55.05,-2.68332998
Shooters Hill,51.4692,0.06697
Shootend,51.05,-1.75
Sholing,50.90043,-1.35381
Sholden,51.222409,1.37296
Shoeburyness,51.53395,0.78089
Shocklach,53.03694,-2.83853
Shobdon,52.25116,-2.88325
Shiskine,55.5189204,-5.30745
Shirwell,51.118109999999994,-4.00651
Shirramore,57.033330,-4.4
Shirley,52.9701204,-1.6755
Shirley,51.37762,-0.04961
Shirland,53.12155,-1.40463999
Shireshead,53.9537606,-2.76143
Shireoaks,53.3260704,-1.16562
Shirenewton,51.6391400,-2.75368
Shirehampton,51.4892,-2.6753
Shirebrook,53.20333,-1.21336
Shirburn,51.6571400,-0.99113
Shipton under Wychwood,51.86035,-1.59847
Shipton Moyne,51.60389,-2.15889
Shipton,54.0226,-1.15527999
Shiptonthorpe,53.87928,-0.70609
Shipton,52.51667,-2.48333
Shipston on Stour,52.06057,-1.62778
Shipley,53.8333300,-1.76667
Shipley,50.98529,-0.37087
Shiplake,51.50062,-0.9026
Shipham,51.31428,-2.8001
Shipdham,52.629230,0.88577000
Shipbourne,51.24658,0.279769996
Shinness,58.0833300,-4.46667
Shingay,52.1,-0.08333
Shinfield,51.40542,-0.94534
Shincliffe,54.76005,-1.55056
Shimpling,52.40248,1.16774
Shimpling,52.12927,0.71737
Shilton,52.45604,-1.40659
Shilton,51.774609,-1.6146
Shillington,51.99344,-0.36006
Shillingstone,50.89567,-2.24495
Shillingford,51.63123,-1.14103
Shildon,54.629970,-1.64295
Shilbottle,55.37099,-1.6882
Shifnal,52.67043,-2.37248
Shield Row,54.866670,-1.7
Shieldhall,55.86765,-4.34624
Shieldaig,57.68878,-5.6817199
Shieldaig,57.5219800,-5.65115
Shiel Bridge,56.75,-5.8
Shide,50.69184,-1.29171000
Sheviock,50.3728400,-4.29389
Shevington,53.5723606,-2.69315998
Sherston,51.57205,-2.21278
Sherrigrim,54.5666705,-6.75
Shernborne,52.861770,0.54411999
Shermanbury,50.96005,-0.28599
Sherington,52.11172,-0.69973
Sheringham,52.9407800,1.20931
Sheriff Hutton,54.0890400,-1.00639
Sheriff Hill,54.94664,-1.58579
Sheriff Hales,52.70704,-2.35679
Sherfield upon Loddon,51.31667,-1.02757
Sherfield English,50.99972,-1.58582
Shere,51.2208605,-0.46597
Sherburn in Elmet,53.7951900,-1.2466
Sherburn Hill,54.7727,-1.47985
Sherburn,54.77606,-1.50474
Sherburn,54.1800400,-0.53027
Sherborne,51.81667,-1.75
Sherborne St John,51.29705,-1.11387000
Sherborne,50.94599,-2.51776
Shepton Mallet,51.18972,-2.54722000
Shepshed,52.7657,-1.29021
Shepreth,52.11241,0.03253
Shepperton,51.39546,-0.448889996
Shepley,53.5833300,-1.71667000
Shepherdswell,51.1871306,1.23048999
Shepherds Bush,51.505,-0.2211
Shephall,51.89391,-0.17345
Shepperdine,51.6587,-2.55368
Shenton,52.59839,-1.43292
Shenstone,52.63802,-1.84147000
Shenley Church End,52.0252200,-0.78994
Shenley Brook End,52.01212,-0.78416000
Shenley,51.6905400,-0.28067
Shenington,52.08225,-1.45981
Shenfield,51.63171,0.33199
Shelve,52.58484,-2.98011
Shelton,52.98333,-0.83332999
Shelton,52.466670,1.26667
Shelsley Beauchamp,52.26324,-2.39498
Shell Haven,51.5068200,0.489919997
Shelley,53.6,-1.68333
Shelley,52.00742,0.95842999
Shelford,52.9723900,-1.01542
Shelford,52.14181,0.12428
Shelfanger,52.41245,1.09726000
Sheldon,52.45596,-1.78202000
Sheigra,58.49482,-5.1132300
Shefford,52.0387,-0.33399
Sheffield,53.382970,-1.4659
Sheet,51.0149200,-0.92058
Sheerness,51.44042,0.76252
Sheering,51.80373,0.18454
Sheepy,52.6,-1.51667
Sheepwash,50.83333,-4.15
Sheepstor,50.49072,-4.0321099
Framwellgate Moor,54.79594,-1.59138999
Sheen,53.15,-1.83333
Shedfield,50.92265,-1.19953
The Sheddings,54.9166706,-6.0666699
Shebbear,50.86255,-4.21446
Shearsby,52.51245,-1.08318
Shawhead,55.05,-3.76666995
Shawforth,53.6813,-2.16499
Shawford,51.01664,-1.33587000
Shawbury,52.7909800,-2.66183
Shaw,53.5666705,-2.08333
Shaw,51.4,-1.3
Shaugh Prior,50.45075,-4.05589
Sharrington,52.8933604,1.02357
Sharpness,51.71972,-2.4775
Sharperton,55.3289605,-2.06932000
Sharnford,52.521220,-1.29474
Sharnbrook,52.22606,-0.54425
Sharnal Street,51.44177,0.57739
Shareshill,52.65602,-2.08141
Shardlow,52.86954,-1.36265
Shapwick,51.14018,-2.83263
Shapwick,50.81667,-2.08333
Shap,54.5314900,-2.67551
Shanklin,50.6261306,-1.1785
Shankill,54.6025,-5.95056
Shandwick,57.7498704,-3.91992
Shandon,56.03949,-4.80269
Shalstone,52.02329,-1.06597
Shalford,51.93493,0.50301000
Shalford,51.21175,-0.56966
Shalfleet,50.70113,-1.42007000
Shalden,51.1729900,-1.00491
Shalbourne,51.36358,-1.55053
Shafton,53.5928605,-1.40925
Shaftesbury,51.00528,-2.19333
Shadoxhurst,51.10797,0.81917
Shadingfield,52.39483,1.57657999
Shader,58.4,-6.46667
Shackerstone,52.6578,-1.44865
Shabbington,51.7568,-1.03623
Sexhow,54.4487800,-1.26559
Sewstern,52.78691,-0.68093
Severn Stoke,52.09645,-2.20906
Seven Sisters,51.76667,-3.71666997
Sevenoaks,51.2726605,0.18883
Seven Kings,51.5640400,0.09631
Sevenhampton,51.6,-1.7
Settrington,54.12432,-0.72166000
Settle,54.06865,-2.2772
Setchey,52.699120,0.419280000
Sessay,54.17201,-1.30282
Seskinore,54.51667,-7.25
Sennybridge,51.94748,-3.56817
Sennen,50.07777,-5.7011699
Senghenydd,51.60818,-3.27694
Sendmarsh,51.28333,-0.51667
Send,51.28875,-0.52666
Semley,51.04135,-2.15585
Semington,51.34493,-2.14798
Semer,52.08148,0.91564
Selworthy,51.21089,-3.54893000
Selston,53.07193,-1.30179
Selstead,51.15865,1.17252999
Selside,54.1666706,-2.33333
Selsey,50.735009,-0.78979
Selmeston,50.84245,0.14248
Selly Oak,52.4392800,-1.94025
Selling,51.2710306,0.91935
Sellindge,51.10297,1.00546
Sellafield,54.4220206,-3.50548000
Sellack,51.95,-2.63333
Selkirk,55.5473800,-2.83911
Selham,50.97853,-0.67008
Selby,53.783330,-1.06667
Selborne,51.09479,-0.93997000
Selattyn,52.9,-3.08333
Seisdon,52.55126,-2.23662000
Seighford,52.82201,-2.17733
Seghill,55.06225,-1.55027
Sefton,53.50407,-2.97195997
Seething,52.52785,1.41791
Seend,51.34806,-2.08472
Sedlescombe,50.93393,0.53378
Sedgwick,54.2764,-2.7494
Sedgley,52.54149,-2.12212000
Sedgehill,51.05335,-2.1917
Sedgeford,52.8992704,0.5453
Sedgefield,54.6532900,-1.44952000
Sedgebrook,52.93237,-0.72716
Sedgeberrow,52.045609,-1.96642
Sedbergh,54.321230,-2.52514
Sebergham,54.76409,-2.99244
Seaview,50.7195604,-1.11164
Seaton Ross,53.86124,-0.81302
Seaton Delaval,55.07196,-1.52609
Seaton Carew,54.6611900,-1.18751
Seaton Burn,55.06126,-1.62752
Seaton,54.843109,-1.3835
Seaton,52.57489,-0.66759
Seaton,50.70494,-3.06999
Seathwaite,54.4969604,-3.18345997
Seathwaite,54.3533,-3.18962
Seascale,54.398309999999995,-3.47960996
Seasalter,51.3467,1.00292999
Searby,53.5380900,-0.38315
Seapatrick,54.3655605,-6.27744
Sea Mills,51.48333,-2.65
Seamill,55.686630,-4.8633
Seamer,54.4839,-1.2303
Seamer,54.2371400,-0.44151
Seale,51.2241400,-0.72081000
Sealand,53.2122,-2.97193
Seal,51.2887606,0.22144
Seahouses,55.5806300,-1.65497
Seaham,54.839030,-1.34575
Upper Seagry,51.526,-2.07828
Seagrave,52.7508400,-1.08507
Seagoe,54.4333300,-6.41667
Seaforde,54.306709999999995,-5.84164
Seaford,50.771409,0.10268
Seacroft,53.81819,-1.45655
Seacombe,53.4095705,-3.01781
Seabrook,51.07202,1.11329
Scunthorpe,53.57905,-0.65437
Sculthorpe,52.84196,0.81371
Scruton,54.32585,-1.53962
Scropton,52.8689604,-1.71475998
Scrooby,53.4097800,-1.02232000
Scrivelsby,53.1767,-0.104759999
Scribbagh,54.383330,-8.0
Scredington,52.95065,-0.37233
Scrayingham,54.03411,-0.84402000
Scrabster,58.61277,-3.54627
Scourie,58.35181,-5.15191
Scoulton,52.57366,0.93431000
Scotton,53.4797705,-0.66519
Scotter,53.49652,-0.67429
Scotswood,54.97039,-1.68552000
Scotstown,56.7119,-5.57172
Scotstoun,55.880109999999995,-4.3529
Scothern,53.28388,-0.45175
Scotforth,54.01667,-2.78333
Scotch Town,54.73333,-7.15
Scotch Street,54.45,-6.51666995
Scotby,54.89004,-2.87464000
Scorton,54.39785,-1.61276
Scorton,53.93362,-2.75970997
Scorrier,50.25472,-5.1962699
Scorborough,53.89545,-0.4596
Scoraig,57.9102,-5.37755
Scopwick,53.10905,-0.40139
Sconser,57.3133900,-6.11149
Scolpaig,57.64885,-7.4874399
Scollogstown,54.26667,-5.73333000
Scole,52.3670605,1.15673999
Scolboa,54.75,-6.15
Scofton,53.317609999999995,-1.05582998
Scholes,53.82346,-1.42805
Schivas,57.4166706,-2.16667
Scawton,54.24462,-1.15949
Scawby,53.53787,-0.54085
Scarva,54.3333300,-6.36667
Scartho,53.53675,-0.09105
Scarrington,52.96748,-0.90697
Scarisbrick,53.6113,-2.93721
Scarinish,56.50396,-6.81018995
Scarfskerry,58.64951,-3.27490998
Scardroy,57.51667,-4.98333000
Scardans Upper,54.533330,-7.98333000
Scardans Lower,54.51667,-7.98333000
Scardans,54.51667,-7.98333000
Scarcroft,53.866670,-1.45
Scarborough,54.27966,-0.40443
Scapa,58.963130,-2.97889000
Scampton,53.301809,-0.57478000
Scamodale,56.8,-5.53333
Scamblesby,53.29085,-0.0866
Scamadale,56.95,-5.78333
Scalloway,60.138320,-1.2769
Scalford,52.80961,-0.86964
Scales,54.1408400,-3.11428
Scalehouses,54.783330,-2.63333
Scaleby,54.95936,-2.86512997
Scalby,54.2999,-0.44838
Scalby,53.76667,-0.71667
Scalasaig,56.068680,-6.18852
Scagglethorpe,54.14193,-0.72355
Scaftworth,53.41799,-1.00125
Saxton,53.8255606,-1.27754
Saxthorpe,52.8303,1.13965
Saxtead,52.24155,1.30823
Saxondale,52.9534,-0.98619
Saxmundham,52.21497,1.48805
Saxlingham Thorpe,52.526280,1.28559
Saxlingham Nethergate,52.52998,1.28565
Saxilby,53.26746,-0.66253000
Saxelby,52.782,-0.96173
Saxby All Saints,53.63726,-0.503
Saxby,53.366670,-0.483330000
Saxby,52.77162,-0.78587
Sawtry,52.4398400,-0.28422
Sawston,52.12089,0.16943
Sawley,53.9,-2.35
Sawley,52.8824900,-1.29999
Sawdon,54.25258,-0.55718
Sawbridgeworth,51.81667,0.15
Saunderton,51.67625,-0.8253
Saundersfoot,51.70945,-4.70215
Saundby,53.3850400,-0.82278
Saul,54.34355,-5.6745199
Saughtree,55.26282,-2.69228
Saughall,53.226180,-2.95649
Sauchie,56.12869,-3.76611
Satterleigh,50.98333,-3.9
Satley,54.784920,-1.8182
Sarre,51.33927,1.23907000
Sarratt,51.68458,-0.494
Sarnesfield,52.15141,-2.92204
Sarnau,52.13333,-4.46667
Sarn,52.85,-4.61667
Sarn,52.5,-3.18332998
Sarclet,58.3759300,-3.11719000
Sapperton,51.7294400,-2.07833
Sapiston,52.33956,0.81187
Sapcote,52.537070,-1.27900000
Santon Bridge,54.383330,-3.36666996
Santon,52.45,0.68333
Sanquhar,55.3652705,-3.9216
Sangobeg,58.55399,-4.7042800
Sandycroft,53.19537,-2.9996
Sandy,52.12927,-0.28925
Sandwood,58.51667,-5.0666699
Sandwick,60.0,-1.25
Sandwick,58.20378,-6.35671
Sandwich,51.27223,1.33776
Sandwell,52.5,-1.96667000
Sandtoft,53.5637605,-0.87886000
Sandside,54.216670,-2.8
Sandsend,54.5,-0.66667
Sands,51.63333,-0.78333
Sandringham,52.8309400,0.507
Sandridge,51.7809,-0.30521
Sandquay,50.36667,-3.58333
Sandplace,50.38391,-4.46293
Sandown,50.651586,-1.16103
Sandon,52.866670,-2.08333
Sandon,51.9927,-0.07592
Sandness,60.29858,-1.64985
Sandleheath,50.88333,-1.81667
Sandiacre,52.92331,-1.29013
Sand Hutton,54.01667,-0.93332999
Sandhurst,51.9052,-2.25005
Sandhurst,51.34675,-0.78655
Sandhurst,51.0266,0.56228
Sandholme,53.76622,-0.74553
Sandhoe,54.991009,-2.04779
Sandhead,54.8082,-4.9618699
Sandhaven,57.6972204,-2.0634
Sandgate,51.07452,1.13949
Sandford St Martin,51.93333,-1.38333
Sandford,54.53881,-2.4218
Sandford,51.33228,-2.83122
Sandford,50.809786,-3.66366998
Sanderstead,51.33591,-0.07778
Sandend,57.680409999999995,-2.7498
Sandbank,55.98203,-4.9497300
Sandbach,53.14515,-2.36251
Sand,60.21356,-1.3775
Sancton,53.8417300,-0.63252
Sancreed,50.10804,-5.61003
Sanaigmore,55.84985,-6.41414
Sampford Spiney,50.5319,-4.06874
Sampford Peverell,50.91945,-3.38081
Sampford Courtenay,50.7942604,-3.94251996
Sampford Arundel,50.96199,-3.2691
Samlesbury,53.7657706,-2.62173
Salum,56.53983,-6.7732
Salton,54.21136,-0.90345
Saltmarshe,53.70786,-0.81174
Saltley,52.491630,-1.8596
Salthouse,52.95195,1.08653
Saltford,51.40139,-2.45944000
Saltfleetby Saint Peter,53.379,0.14484
Saltfleetby St Clement,53.4,0.18333
Saltfleetby All Saints,53.39111,0.18814
Saltfleet,53.4218605,0.186440000
Salterforth,53.90455,-2.17074000
Saltcoats,55.63616,-4.7858800
Saltby,52.8275800,-0.73693999
Saltburn-by-the-Sea,54.58237,-0.97367
Saltash,50.40959,-4.2251400
Saltaire,53.8333300,-1.78332999
Salt,52.8479300,-2.06793
Salperton,51.88265,-1.88983
Salmonby,53.2413706,-0.01625
Sallachy,57.3166705,-5.48333000
Sallachan,56.714920,-5.30344
Sall,52.8,1.13333
Salisbury,51.069309999999994,-1.79569000
Saline,56.11399,-3.57034000
Salhouse,52.67365,1.4132
Salfords,51.2043,-0.16947
Salford Priors,52.15813,-1.89054
Salford,53.48771,-2.29042
Salford,52.0438900,-0.63635
Salford,51.9492900,-1.58195
Salen,56.716670,-5.78333
Salen,56.516720,-5.94699
Saleby,53.28561,0.18428
Sale,53.42519,-2.32443
Salcott,51.78781,0.82322000
Salcombe Regis,50.6932200,-3.20718
Salcombe,50.2374306,-3.76874
Salachadh,58.033330,-4.45
Saint Winnow,50.38333,-4.65
Saint Weonards,51.91667,-2.71667
Saint Vigeans,56.5666705,-2.56667000
Saint Veep,50.36667,-4.61667
Saint Twynnells,51.64056,-4.96167
Saint Tudy,50.55,-4.73333000
Saint Teath,50.592909,-4.73721
Saint Stephen,50.34469,-4.89973
Golant,50.363409999999995,-4.64263000
Saint Peters,54.966670,-1.56667
Saint Peters,51.36667,1.41667
Saint Pauls Walden,51.88584,-0.26682
Saint Pancras,51.53333,-0.13333
Saint Osyth,51.8,1.08333
Saint Ninians,56.1,-3.93333
Saint Nicholas at Wade,51.35266,1.25328
Saint Nicholas,51.98083,-5.05666996
Saint Nicholas,51.46,-3.30833
Saint Neots,52.21667,-0.266669996
Saint Neot,50.4811200,-4.55918000
Saint Monans,56.206509999999994,-2.76821
Saint Minver,50.55,-4.86667
Saint Michaels on Wyre,53.85,-2.81667000
Saint Michaels,51.08482,0.69188
Saint Merryn,50.5254605,-4.98982
Saint Mellons,51.51667,-3.11667
Saint Mellion,50.46667,-4.26666995
Saint Mawgan,50.45,-4.98333000
Saint Mawes,50.1594400,-5.01222
Saint Maughans,51.85,-2.78333
Saint Mary Hoo,51.45834,0.59673999
Saint Marys,58.9,-2.91667
St Mary Cray,51.38333,0.116670000
Saint Mary Bourne,51.2511,-1.3965
Saint Martins Green,50.06667,-5.16667
Saint Martins,56.45,-3.38333000
Saint Martin,50.36667,-4.4333300
Saint Margaret's Hope,58.8253,-2.95828
Saint Margaret's at Cliffe,51.1564200,1.36822998
Saint Margaret,52.40491,1.39865
Saint Margaret,52.0,-2.95
Saint Mabyn,50.52597,-4.76607
Saint Lythans,51.4508306,-3.28028000
Saint Levan,50.04226,-5.6600699
Saint Leonards-on-Sea,50.85565,0.5452
St Leonards,50.83077,-1.84377000
Ilketshall St Lawrence,52.40195,1.49543
Saint Lawrence,51.9,-5.0
Saint Lawrence,51.70374,0.83419
Saint Lawrence,50.58934,-1.23228999
Saint Keyne,50.41667,-4.46667
Saint Kew,50.55,-4.78333
Saint Keverne,50.0496400,-5.0895199
Saint Just in Roseland,50.18333,-5.01666995
St John's Wood,51.52991,-0.17467
Saint Johns Chapel,54.736709999999995,-2.18044
Saint John Beckermet,54.45,-3.51666995
Saint James,52.37832,1.40724
Saint Ives,52.33251,-0.07656
Saint Ives,50.83333,-1.81667
St Ives,50.20861,-5.4875
Saint Ive,50.48333,-4.38333
Saint Issey,50.5,-4.91667
Saint Ishmael's,51.72361,-5.1383300
Saint Ishmael,51.74627,-4.37149000
Saint Hilary,50.11667,-5.41667
St Helens,53.45,-2.73333
St. Helens,50.69688,-1.11158999
Saint Harmon,52.33333,-3.48333000
Saint Goran,50.25083,-4.8219699
Saint Giles on the Heath,50.68333,-4.33333
Saint Germans,50.3931605,-4.30817
Saint Germains,55.95,-2.91667
Saint Gennys,50.73333,-4.63333
Saint Florence,51.67583,-4.7747199
Saint Fillans,56.383330,-4.11667
Saintfield,54.46046,-5.83065
Saint Fergus,57.5595800,-1.84310998
